{"bbox": [40.44, -3.78, 40.58, -3.6], "generado": "2026-07-11T20:36:55", "puntos": {"metro": [{"lat": 40.4458416, "lon": -3.6916991, "nombre": "Nuevos Ministerios"}, {"lat": 40.4608552, "lon": -3.6982259, "nombre": "Tetuán"}, {"lat": 40.4662822, "lon": -3.6896636, "nombre": "Plaza de Castilla"}, {"lat": 40.4739539, "lon": -3.6827087, "nombre": "Chamartín"}, {"lat": 40.4769812, "lon": -3.676614, "nombre": "Bambú"}, {"lat": 40.4800504, "lon": -3.6670518, "nombre": "Pinar de Chamartín"}, {"lat": 40.4415935, "lon": -3.7015924, "nombre": "Ríos Rosas"}, {"lat": 40.4500867, "lon": -3.7035098, "nombre": "Alvarado"}, {"lat": 40.4645262, "lon": -3.694999, "nombre": "Valdeacederas"}, {"lat": 40.4545136, "lon": -3.7027568, "nombre": "Estrecho"}, {"lat": 40.4571156, "lon": -3.6769611, "nombre": "Colombia"}, {"lat": 40.4678284, "lon": -3.6486781, "nombre": "Pinar del Rey"}, {"lat": 40.4698205, "lon": -3.6385808, "nombre": "Mar de Cristal"}, {"lat": 40.464, "lon": -3.6163088, "nombre": "Feria de Madrid"}, {"lat": 40.4766992, "lon": -3.662679, "nombre": "Manoteras"}, {"lat": 40.4747276, "lon": -3.652125, "nombre": "Hortaleza"}, {"lat": 40.4771257, "lon": -3.6456986, "nombre": "Parque de Santa María"}, {"lat": 40.4745618, "lon": -3.6396107, "nombre": "San Lorenzo"}, {"lat": 40.4637721, "lon": -3.6354426, "nombre": "Canillas"}, {"lat": 40.4592436, "lon": -3.6455644, "nombre": "Esperanza"}, {"lat": 40.455936, "lon": -3.6561772, "nombre": "Arturo Soria"}, {"lat": 40.4532165, "lon": -3.6621876, "nombre": "Avenida de la Paz"}, {"lat": 40.4482221, "lon": -3.6678923, "nombre": "Alfonso XIII"}, {"lat": 40.4442092, "lon": -3.6748514, "nombre": "Prosperidad"}, {"lat": 40.4408788, "lon": -3.6270164, "nombre": "Suanzes"}, {"lat": 40.443618, "lon": -3.6171219, "nombre": "Torre Arias"}, {"lat": 40.4491131, "lon": -3.6085862, "nombre": "Canillejas"}, {"lat": 40.4467812, "lon": -3.7039643, "nombre": "Cuatro Caminos"}, {"lat": 40.4462739, "lon": -3.7131693, "nombre": "Guzmán el Bueno"}, {"lat": 40.4566118, "lon": -3.7121114, "nombre": "Francos Rodríguez"}, {"lat": 40.4649188, "lon": -3.7165189, "nombre": "Valdezarza"}, {"lat": 40.4701887, "lon": -3.7178808, "nombre": "Antonio Machado"}, {"lat": 40.4759519, "lon": -3.7160518, "nombre": "Peñagrande"}, {"lat": 40.4800446, "lon": -3.7183058, "nombre": "Avenida de la Ilustración"}, {"lat": 40.4851113, "lon": -3.7231023, "nombre": "Lacoma"}, {"lat": 40.4438005, "lon": -3.7264206, "nombre": "Ciudad Universitaria"}, {"lat": 40.446506, "lon": -3.7190437, "nombre": "Vicente Aleixandre"}, {"lat": 40.4443179, "lon": -3.6846392, "nombre": "República Argentina"}, {"lat": 40.4906807, "lon": -3.7259989, "nombre": "Arroyofresno"}, {"lat": 40.4674764, "lon": -3.6805854, "nombre": "Duque de Pastrana"}, {"lat": 40.4698213, "lon": -3.696293, "nombre": "Ventilla"}, {"lat": 40.4770471, "lon": -3.7035391, "nombre": "Barrio del Pilar"}, {"lat": 40.4846027, "lon": -3.7080099, "nombre": "Herrera Oria"}, {"lat": 40.4910429, "lon": -3.7165397, "nombre": "Mirasierra"}, {"lat": 40.4444834, "lon": -3.6784632, "nombre": "Cruz del Rayo"}, {"lat": 40.4513295, "lon": -3.6776079, "nombre": "Concha Espina"}, {"lat": 40.4618018, "lon": -3.6765305, "nombre": "Pío XII"}, {"lat": 40.4523667, "lon": -3.6907254, "nombre": "Santiago Bernabéu"}, {"lat": 40.4594841, "lon": -3.6900166, "nombre": "Cuzco"}, {"lat": 40.4834526, "lon": -3.6869037, "nombre": "Begoña"}, {"lat": 40.4947348, "lon": -3.6930692, "nombre": "Fuencarral"}, {"lat": 40.500966, "lon": -3.6946891, "nombre": "Tres Olivos"}, {"lat": 40.5053359, "lon": -3.6959917, "nombre": "Montecarmelo"}, {"lat": 40.5083428, "lon": -3.6694346, "nombre": "Las Tablas"}, {"lat": 40.5151569, "lon": -3.6623169, "nombre": "Ronda de la Comunicación"}, {"lat": 40.5274337, "lon": -3.6585237, "nombre": "La Granja"}, {"lat": 40.5320326, "lon": -3.6354938, "nombre": "La Moraleja"}, {"lat": 40.5404555, "lon": -3.6380507, "nombre": "Marqués de la Valdavia"}, {"lat": 40.5502221, "lon": -3.6469674, "nombre": "Manuel de Falla"}, {"lat": 40.5543838, "lon": -3.6350405, "nombre": "Baunatal"}, {"lat": 40.5509075, "lon": -3.6240552, "nombre": "Reyes Católicos"}, {"lat": 40.5598448, "lon": -3.6115488, "nombre": "Hospital Infanta Sofía"}, {"lat": 40.4953016, "lon": -3.7255882, "nombre": "Pitis"}], "cercanias": [{"lat": 40.5015362, "lon": -3.6821615, "nombre": "Fuencarral"}, {"lat": 40.5584694, "lon": -3.7138301, "nombre": "El Goloso"}, {"lat": 40.5467468, "lon": -3.6346007, "nombre": "Alcobendas - San Sebastián de los Reyes"}, {"lat": 40.5054595, "lon": -3.6650971, "nombre": "Palas de Rey"}, {"lat": 40.4872436, "lon": -3.661223, "nombre": "Virgen del Cortijo"}, {"lat": 40.4846824, "lon": -3.6630565, "nombre": "Fuente de la Mora"}, {"lat": 40.4853643, "lon": -3.6537279, "nombre": "Antonio Saura"}, {"lat": 40.4891668, "lon": -3.6513796, "nombre": "Álvarez de Villaamil"}, {"lat": 40.4936729, "lon": -3.6558437, "nombre": "Blasco Ibáñez"}, {"lat": 40.4976043, "lon": -3.6584428, "nombre": "María Tudor"}, {"lat": 40.4818094, "lon": -3.6164188, "nombre": "Valdebebas"}, {"lat": 40.5540616, "lon": -3.683493, "nombre": "Universidad Pontificia de Comillas"}, {"lat": 40.5473962, "lon": -3.6543921, "nombre": "Valdelasfuentes"}, {"lat": 40.4849618, "lon": -3.6631142, "nombre": "Fuente de la Mora"}, {"lat": 40.4450104, "lon": -3.6919655, "nombre": "Nuevos Ministerios"}, {"lat": 40.5438006, "lon": -3.7001897, "nombre": "Universidad-Cantoblanco"}, {"lat": 40.4720571, "lon": -3.6822622, "nombre": "Madrid-Chamartín-Clara Campoamor"}], "bus": [{"lat": 40.450042, "lon": -3.6079808, "nombre": "Av. América - Canillejas"}, {"lat": 40.4509758, "lon": -3.6076929, "nombre": "Av. Logroño - Pº Alameda de Osuna"}, {"lat": 40.5465774, "lon": -3.6531493, "nombre": "Marqués Valdavia - Est. Valdelasfuentes"}, {"lat": 40.5470774, "lon": -3.6564852, "nombre": "Marqués Valdavia - Camilo José Cela"}, {"lat": 40.5468863, "lon": -3.6539953, "nombre": "Marqués Valdavia - Est. Valdelasfuentes"}, {"lat": 40.449367, "lon": -3.7622799, "nombre": "Vía de las Dos Castillas"}, {"lat": 40.4510885, "lon": -3.6080116, "nombre": "Avda. de Logroño N 29"}, {"lat": 40.4491151, "lon": -3.6402826, "nombre": "Avenida de América-Conde de Orgaz"}, {"lat": 40.5222661, "lon": -3.6516513, "nombre": "Ctra. A1 - Cuesta Blanca"}, {"lat": 40.5217537, "lon": -3.6510033, "nombre": "Ctra. A1 - Cuesta Blanca"}, {"lat": 40.5271438, "lon": -3.612137, "nombre": "Pº Alcobendas - Urb. Levit Park"}, {"lat": 40.5346803, "lon": -3.6968247, "nombre": "Ctra. M607 - Valdelatas"}, {"lat": 40.527376, "lon": -3.6914861, "nombre": "Ctra. M607 - Ciudad Escolar"}, {"lat": 40.5549256, "lon": -3.7090284, "nombre": "Ctra. M607 - El Goloso"}, {"lat": 40.4793664, "lon": -3.7516417, "nombre": "Ctra. M605 - El Tejar de Somontes"}, {"lat": 40.5583706, "lon": -3.7125771, "nombre": "Ctra. M607 - Est. El Goloso"}, {"lat": 40.536139, "lon": -3.6415473, "nombre": "Av. Valdelaparra - Museo de la Ciencia"}, {"lat": 40.5264052, "lon": -3.653675, "nombre": "Ctra. M603 - C.C. Planet Alcobendas"}, {"lat": 40.5260885, "lon": -3.6477632, "nombre": "Yuca - Ctra. N1"}, {"lat": 40.5531241, "lon": -3.6753981, "nombre": "Ctra. M616 - Colegio"}, {"lat": 40.578572, "lon": -3.7055791, "nombre": "Ctra. M607 - Cementerio La Paz"}, {"lat": 40.5391929, "lon": -3.6471554, "nombre": "Av. Valdelaparra - Parque Andalucía"}, {"lat": 40.5721118, "lon": -3.7094548, "nombre": "Ctra. M607 - Las Jarillas"}, {"lat": 40.544319, "lon": -3.6614863, "nombre": "Av. Valdelaparra - Pº Chopera"}, {"lat": 40.5256606, "lon": -3.6526433, "nombre": "Fco. Chico Mendes - C.C. Planet Alcobendas"}, {"lat": 40.5531875, "lon": -3.6820113, "nombre": "Ctra. M616 - Universidad Comillas"}, {"lat": 40.5417989, "lon": -3.6609016, "nombre": "Av. Valdelaparra - Instituto"}, {"lat": 40.5302679, "lon": -3.6479857, "nombre": "Ctra. M603 - C.C. Río Norte"}, {"lat": 40.5019537, "lon": -3.6606071, "nombre": "Av. Burgos - Dominicos"}, {"lat": 40.5014172, "lon": -3.6599348, "nombre": "Av. Burgos - Dominicos"}, {"lat": 40.5468466, "lon": -3.6344459, "nombre": "Av. Sierra - Est. Alcobendas S. Seb. Reyes"}, {"lat": 40.5547566, "lon": -3.6340331, "nombre": "Pza. Universidad Popular - Est. Baunatal"}, {"lat": 40.5409612, "lon": -3.6284739, "nombre": "Av. España - M. Sebastián Izuel"}, {"lat": 40.5413656, "lon": -3.6269787, "nombre": "Pº Europa - Cº Juncal"}, {"lat": 40.4643052, "lon": -3.7243575, "nombre": "Fernández Clausells-Isla de Oza"}, {"lat": 40.4613409, "lon": -3.7243505, "nombre": "Fernández Clausells-Mártires Maristas"}, {"lat": 40.4829397, "lon": -3.699554, "nombre": "López Aguado-Arzobispo Morcillo"}, {"lat": 40.4819595, "lon": -3.7022468, "nombre": "López Aguado-Finisterre"}, {"lat": 40.4815723, "lon": -3.7320229, "nombre": "Rodríguez Castelao-Doctor Reinosa"}, {"lat": 40.4821741, "lon": -3.7360944, "nombre": "Rodríguez Castelao-Gabriela Mistral"}, {"lat": 40.4822001, "lon": -3.7338938, "nombre": "Rodríguez Castelao-Rosalía de Castro"}, {"lat": 40.4771317, "lon": -3.6539293, "nombre": "Estación Hortaleza-Chaves Nogales"}, {"lat": 40.4771129, "lon": -3.654218, "nombre": "Estación Hortaleza-Chaves Nogales"}, {"lat": 40.4787498, "lon": -3.6523414, "nombre": "Estación Hortaleza-Polideportivo"}, {"lat": 40.4736397, "lon": -3.6561723, "nombre": "Estación Hortaleza-Virgen del Carmen"}, {"lat": 40.4736263, "lon": -3.6559277, "nombre": "Estación Hortaleza-Virgen del Carmen"}, {"lat": 40.4686401, "lon": -3.6309603, "nombre": "Aconcagua-Nevado Cumbal"}, {"lat": 40.4687846, "lon": -3.6307972, "nombre": "Aconcagua-Nevado Cumbal"}, {"lat": 40.4981603, "lon": -3.6922205, "nombre": "Afueras a Valverde-Bella Altisidora"}, {"lat": 40.4978278, "lon": -3.6923526, "nombre": "Afueras a Valverde-San Cugat"}, {"lat": 40.4973908, "lon": -3.6894281, "nombre": "Afueras a Valverde"}, {"lat": 40.4979214, "lon": -3.6889424, "nombre": "Afueras a Valverde"}, {"lat": 40.4425842, "lon": -3.6949997, "nombre": "San Juan de la Cruz"}, {"lat": 40.4697701, "lon": -3.6857722, "nombre": "Agustín de Foxá"}, {"lat": 40.470146, "lon": -3.6856696, "nombre": "Agustín de Foxá"}, {"lat": 40.4585394, "lon": -3.6782628, "nombre": "República Dominicana"}, {"lat": 40.4588011, "lon": -3.6782802, "nombre": "República Dominicana"}, {"lat": 40.4586441, "lon": -3.6851296, "nombre": "Alberto Alcocer-Padre Damián"}, {"lat": 40.4588746, "lon": -3.685229, "nombre": "Alberto Alcocer-Padre Damián"}, {"lat": 40.4590841, "lon": -3.6889387, "nombre": "Cuzco"}, {"lat": 40.4584524, "lon": -3.682331, "nombre": "Alberto Alcocer-Paseo de la Habana"}, {"lat": 40.458692, "lon": -3.6823365, "nombre": "Alberto Alcocer-Paseo de la Habana"}, {"lat": 40.4400544, "lon": -3.6304665, "nombre": "Alcalá-Alfonso Gómez"}, {"lat": 40.4417655, "lon": -3.6240704, "nombre": "Alcalá-25 de Septiembre"}, {"lat": 40.4421104, "lon": -3.6228241, "nombre": "Alcalá-25 de Septiembre"}, {"lat": 40.4439009, "lon": -3.6163102, "nombre": "Alcalá-Avenida Canillejas"}, {"lat": 40.4439738, "lon": -3.6166465, "nombre": "Alcalá-Avenida Canillejas"}, {"lat": 40.4484426, "lon": -3.6096795, "nombre": "Canillejas"}, {"lat": 40.4455023, "lon": -3.6141738, "nombre": "Alcalá-San Mariano"}, {"lat": 40.4425018, "lon": -3.6206768, "nombre": "Alcalá-Cronos"}, {"lat": 40.4426768, "lon": -3.6206163, "nombre": "Alcalá-Cronos"}, {"lat": 40.4470827, "lon": -3.6114002, "nombre": "Alcalá-Esfinge"}, {"lat": 40.4404934, "lon": -3.6280851, "nombre": "Suanzes"}, {"lat": 40.4407696, "lon": -3.6278306, "nombre": "Suanzes"}, {"lat": 40.4469276, "lon": -3.6119818, "nombre": "Alcalá-Esfinge"}, {"lat": 40.4453528, "lon": -3.6140723, "nombre": "Alcalá-San Mariano"}, {"lat": 40.4416056, "lon": -3.624007, "nombre": "Alcalá-25 de Septiembre"}, {"lat": 40.449147, "lon": -3.6081612, "nombre": "Canillejas"}, {"lat": 40.4498259, "lon": -3.6002136, "nombre": "Alcalá-Avenida Séptima"}, {"lat": 40.4499482, "lon": -3.6002239, "nombre": "Alcalá-Avenida Séptima"}, {"lat": 40.487926, "lon": -3.6575861, "nombre": "Ingeniero Herrera-Moreno Torres"}, {"lat": 40.486231, "lon": -3.6599176, "nombre": "Ingeniero Herrera-Príncipe Carlos"}, {"lat": 40.4921255, "lon": -3.6525954, "nombre": "Ingeniero Herrera-Príncipe Carlos"}, {"lat": 40.4631396, "lon": -3.7154839, "nombre": "Martín Alzaga-Altea"}, {"lat": 40.4632164, "lon": -3.7155156, "nombre": "Martín Alzaga-Altea"}, {"lat": 40.4626232, "lon": -3.7181545, "nombre": "Martín Alzaga-Artajona"}, {"lat": 40.4626759, "lon": -3.71836, "nombre": "Martín Alzaga-Artajona"}, {"lat": 40.4979925, "lon": -3.6899075, "nombre": "Aldonza Lorenzo"}, {"lat": 40.4982697, "lon": -3.6900878, "nombre": "Aldonza Lorenzo"}, {"lat": 40.4808936, "lon": -3.7310783, "nombre": "Alejandro Casona-Doctor Reinosa"}, {"lat": 40.4810486, "lon": -3.7307902, "nombre": "Alejandro Casona-Doctor Reinosa"}, {"lat": 40.482075, "lon": -3.7337273, "nombre": "Rodríguez Castelao-Rosalía de Castro"}, {"lat": 40.4601935, "lon": -3.6804091, "nombre": "Alfonso XIII-Paseo de La Habana"}, {"lat": 40.4603689, "lon": -3.6804555, "nombre": "Alfonso XIII-Paseo de La Habana"}, {"lat": 40.4871203, "lon": -3.6972699, "nombre": "Fermín Caballero-Alfredo Marqueríe"}, {"lat": 40.4869759, "lon": -3.7032488, "nombre": "Alfredo Marqueríe"}, {"lat": 40.4871478, "lon": -3.7016415, "nombre": "Valencia de Don Juan-Alfredo Marqueríe"}, {"lat": 40.479108, "lon": -3.6593689, "nombre": "Alicún"}, {"lat": 40.4539435, "lon": -3.7151532, "nombre": "Sánchez Arcas-Rubio y Galí"}, {"lat": 40.4543107, "lon": -3.7147801, "nombre": "Sánchez Arcas-Rubio y Galí"}, {"lat": 40.452763, "lon": -3.7166584, "nombre": "Sánchez Arcas-Moreras"}, {"lat": 40.4527754, "lon": -3.7169876, "nombre": "Sánchez Arcas-Moreras"}, {"lat": 40.4442284, "lon": -3.6972453, "nombre": "Alonso Cano-María de Guzmán"}, {"lat": 40.4461123, "lon": -3.6970761, "nombre": "Alonso Cano-Fernández Villaverde"}, {"lat": 40.4414794, "lon": -3.6974527, "nombre": "Alonso Cano-Ríos Rosas"}, {"lat": 40.4968843, "lon": -3.6543385, "nombre": "Ana Austria - Niceto Alcalá Zamora"}, {"lat": 40.4969939, "lon": -3.6547092, "nombre": "Ana de Austria-Alcalá Zamora"}, {"lat": 40.4925967, "lon": -3.6589816, "nombre": "Ana Austria - Princesa Éboli"}, {"lat": 40.4927478, "lon": -3.6593374, "nombre": "Ana Austria - Princesa Éboli"}, {"lat": 40.4947402, "lon": -3.6567026, "nombre": "Ana Austria - Príncipe Carlos"}, {"lat": 40.494954, "lon": -3.6569183, "nombre": "Ana Austria - Príncipe Carlos"}, {"lat": 40.4970699, "lon": -3.6928771, "nombre": "Anastasia López-Braille"}, {"lat": 40.497111, "lon": -3.6927263, "nombre": "Anastasia López-Braille"}, {"lat": 40.486201, "lon": -3.6868956, "nombre": "Ángel Múgica"}, {"lat": 40.4473952, "lon": -3.6467599, "nombre": "Angelita Cavero"}, {"lat": 40.4618093, "lon": -3.7190142, "nombre": "Antonio Machado-Martín Alzaga"}, {"lat": 40.4631734, "lon": -3.7202215, "nombre": "Antonio Machado-Isla de Oza"}, {"lat": 40.4633412, "lon": -3.7200301, "nombre": "Antonio Machado-Isla de Oza"}, {"lat": 40.4617149, "lon": -3.7193405, "nombre": "Antonio Machado-Martín Alzaga"}, {"lat": 40.4650292, "lon": -3.7194336, "nombre": "Antonio Machado-Sinesio Delgado"}, {"lat": 40.465077, "lon": -3.7190543, "nombre": "Antonio Machado-Sinesio Delgado"}, {"lat": 40.4656699, "lon": -3.7193255, "nombre": "Antonio Machado-Sinesio Delgado"}, {"lat": 40.4658377, "lon": -3.7191529, "nombre": "Antonio Machado-Sinesio Delgado"}, {"lat": 40.4674783, "lon": -3.7195086, "nombre": "Antonio Machado-Centro Cultural"}, {"lat": 40.4680832, "lon": -3.719506, "nombre": "Antonio Machado-Centro Cultural"}, {"lat": 40.4702252, "lon": -3.7198402, "nombre": "Metro Antonio Machado"}, {"lat": 40.4700724, "lon": -3.7194378, "nombre": "Metro Antonio Machado"}, {"lat": 40.4862688, "lon": -3.6933087, "nombre": "Antonio Robles-Hospital Ramón y Cajal"}, {"lat": 40.4599272, "lon": -3.7792127, "nombre": "Araquil - Av. Osa Mayor"}, {"lat": 40.4689336, "lon": -3.6390511, "nombre": "Arequipa-Mar de Cristal"}, {"lat": 40.4689762, "lon": -3.6408125, "nombre": "Arequipa"}, {"lat": 40.4685449, "lon": -3.6343703, "nombre": "Arequipa-Aconcagua"}, {"lat": 40.4688485, "lon": -3.6373203, "nombre": "Arequipa-Emigrantes"}, {"lat": 40.463966, "lon": -3.7699301, "nombre": "Valdemarín-Argentona"}, {"lat": 40.4640473, "lon": -3.7698986, "nombre": "Valdemarín-Argentona"}, {"lat": 40.4687429, "lon": -3.7008176, "nombre": "Arroyo"}, {"lat": 40.469752, "lon": -3.702302, "nombre": "Arroyo-Paseo de la Dirección"}, {"lat": 40.4515579, "lon": -3.7689749, "nombre": "Arroyo Pozuelo-Alcornoque"}, {"lat": 40.4513965, "lon": -3.7686939, "nombre": "Arroyo Pozuelo-Alcornoque"}, {"lat": 40.4513438, "lon": -3.7723447, "nombre": "Arroyo Pozuelo-Anís"}, {"lat": 40.4523042, "lon": -3.7782318, "nombre": "Arroyo Pozuelo-Carretera de de Húmera"}, {"lat": 40.4525393, "lon": -3.7786022, "nombre": "Arroyo Pozuelo-Carretera de de Húmera"}, {"lat": 40.4519858, "lon": -3.775065, "nombre": "Arroyo Pozuelo-Hinojo"}, {"lat": 40.4515253, "lon": -3.7725242, "nombre": "Arroyo Pozuelo-Anís"}, {"lat": 40.4525463, "lon": -3.7761092, "nombre": "Arroyo Pozuelo-Hinojo"}, {"lat": 40.4765846, "lon": -3.7414184, "nombre": "Herrera Oria-Arroyofresno"}, {"lat": 40.4772851, "lon": -3.7410545, "nombre": "Arroyofresno-Herrera Oria"}, {"lat": 40.4775288, "lon": -3.740982, "nombre": "Arroyofresno-Herrera Oria"}, {"lat": 40.4824023, "lon": -3.6645213, "nombre": "Arturo Soria-M11"}, {"lat": 40.4825356, "lon": -3.6649359, "nombre": "Arturo Soria-M11"}, {"lat": 40.4767493, "lon": -3.6685124, "nombre": "San Luis-Arturo Soria"}, {"lat": 40.4768098, "lon": -3.6689495, "nombre": "San Luis-Arturo Soria"}, {"lat": 40.4665293, "lon": -3.6661291, "nombre": "Arturo Soria-Añastro"}, {"lat": 40.4665082, "lon": -3.6657824, "nombre": "Arturo Soria-Añastro"}, {"lat": 40.4675081, "lon": -3.6659654, "nombre": "Arturo Soria-Añastro"}, {"lat": 40.4570354, "lon": -3.6573905, "nombre": "Metro Arturo Soria"}, {"lat": 40.4777915, "lon": -3.6690079, "nombre": "Arturo Soria-Caleruega"}, {"lat": 40.4567219, "lon": -3.6575463, "nombre": "Metro Arturo Soria"}, {"lat": 40.4467284, "lon": -3.6490289, "nombre": "Arturo Soria-Josefa Valcárcel"}, {"lat": 40.4675812, "lon": -3.6664163, "nombre": "Arturo Soria-Añastro"}, {"lat": 40.4755738, "lon": -3.6685855, "nombre": "Cuartel de la Marina"}, {"lat": 40.4784795, "lon": -3.6684234, "nombre": "Arturo Soria-Cultura"}, {"lat": 40.4801651, "lon": -3.6670011, "nombre": "Pinar de Chamartín"}, {"lat": 40.4508985, "lon": -3.6521721, "nombre": "Arturo Soria-Conservatorio"}, {"lat": 40.4731478, "lon": -3.6679406, "nombre": "Ingenieros Navales"}, {"lat": 40.4731127, "lon": -3.6676531, "nombre": "Ingenieros Navales"}, {"lat": 40.4490344, "lon": -3.6506765, "nombre": "Hospital Universitario Vithas"}, {"lat": 40.4496539, "lon": -3.6515726, "nombre": "Hospital Universitario Vithas"}, {"lat": 40.4543155, "lon": -3.6553341, "nombre": "Jefatura provincial Tráfico"}, {"lat": 40.4546803, "lon": -3.6553576, "nombre": "Arturo Soria-Bueso Pineda"}, {"lat": 40.4411952, "lon": -3.6402905, "nombre": "Arturo Soria-José del Hierro"}, {"lat": 40.4420023, "lon": -3.6412736, "nombre": "Arturo Soria-José del Hierro"}, {"lat": 40.4470586, "lon": -3.649007, "nombre": "Arturo Soria-Josefa Valcárcel"}, {"lat": 40.4447397, "lon": -3.6456674, "nombre": "Arturo Soria-Juan Pérez de Zúñiga"}, {"lat": 40.4450861, "lon": -3.6456411, "nombre": "Arturo Soria-Juan Pérez de Zúñiga"}, {"lat": 40.4711274, "lon": -3.6670164, "nombre": "Arturo Soria-Julio Danvila"}, {"lat": 40.4591165, "lon": -3.6594449, "nombre": "Arturo Soria-López de Hoyos"}, {"lat": 40.4594699, "lon": -3.6606779, "nombre": "Arturo Soria-López de Hoyos"}, {"lat": 40.4530176, "lon": -3.6538469, "nombre": "Jefatura Provincial Tráfico"}, {"lat": 40.4518904, "lon": -3.6532412, "nombre": "Arturo Soria-Conservatorio"}, {"lat": 40.4629643, "lon": -3.6650213, "nombre": "Arturo Soria-Aleixandre"}, {"lat": 40.4640602, "lon": -3.6650642, "nombre": "Arturo Soria-Aleixandre"}, {"lat": 40.4439772, "lon": -3.6439272, "nombre": "Arturo Soria-Marqués de Pico Velasco"}, {"lat": 40.4442131, "lon": -3.643864, "nombre": "Arturo Soria-Marqués de Pico Velasco"}, {"lat": 40.445852, "lon": -3.6472404, "nombre": "Arturo Soria-Pilar Cavero"}, {"lat": 40.4708787, "lon": -3.6673227, "nombre": "Arturo Soria-Julio Danvila"}, {"lat": 40.4609731, "lon": -3.6623386, "nombre": "Arturo Soria-Gran Vía de Hortaleza"}, {"lat": 40.4791412, "lon": -3.6685085, "nombre": "Arturo Soria-Cultura"}, {"lat": 40.4804142, "lon": -3.667251, "nombre": "Pinar de Chamartín"}, {"lat": 40.4807535, "lon": -3.6910015, "nombre": "Arzobispo Morcillo-Facultad Medicina"}, {"lat": 40.4809744, "lon": -3.6914113, "nombre": "Arzobispo Morcillo-Facultad Medicina"}, {"lat": 40.4815324, "lon": -3.6943612, "nombre": "Arzobispo Morcillo-Julio Palacios"}, {"lat": 40.4816382, "lon": -3.6944805, "nombre": "Arzobispo Morcillo-Julio Palacios"}, {"lat": 40.4812942, "lon": -3.6971707, "nombre": "Arzobispo Morcillo-Parque Norte"}, {"lat": 40.4814099, "lon": -3.6970395, "nombre": "Arzobispo Morcillo-Parque Norte"}, {"lat": 40.4436978, "lon": -3.6244501, "nombre": "Plaza Ensidesa"}, {"lat": 40.4438124, "lon": -3.6249228, "nombre": "Plaza Ensidesa"}, {"lat": 40.4452871, "lon": -3.6254317, "nombre": "Plaza de las Olivas"}, {"lat": 40.4455212, "lon": -3.6258638, "nombre": "Plaza de las Olivas"}, {"lat": 40.455145, "lon": -3.6670602, "nombre": "Alfonso XIII-Alhelíes"}, {"lat": 40.4551828, "lon": -3.6667539, "nombre": "Alfonso XIII-Alhelíes"}, {"lat": 40.4570446, "lon": -3.6672912, "nombre": "Aster"}, {"lat": 40.4573735, "lon": -3.6670044, "nombre": "Aster"}, {"lat": 40.4531172, "lon": -3.6671935, "nombre": "Alfonso XIII-Ramón y Cajal"}, {"lat": 40.4531427, "lon": -3.6674532, "nombre": "Alfonso XIII-Ramón y Cajal"}, {"lat": 40.4509473, "lon": -3.66737, "nombre": "Alfonso XIII-Pradillo"}, {"lat": 40.4512183, "lon": -3.667644, "nombre": "Alfonso XIII-Pradillo"}, {"lat": 40.447825, "lon": -3.6523325, "nombre": "Puente de CEA"}, {"lat": 40.4478077, "lon": -3.6515684, "nombre": "Puente de CEA"}, {"lat": 40.4403432, "lon": -3.6700829, "nombre": "Avenida de América-Corazón de María"}, {"lat": 40.4432265, "lon": -3.665177, "nombre": "Av. America - Parque Avenidas"}, {"lat": 40.4413695, "lon": -3.6654286, "nombre": "Avenida Guindalera-Camilo José Cela"}, {"lat": 40.4540443, "lon": -3.6220069, "nombre": "Arroyo del Santo"}, {"lat": 40.4683365, "lon": -3.6942567, "nombre": "Avenida de Asturias-Cañaveral"}, {"lat": 40.4685, "lon": -3.6940398, "nombre": "Avenida de Asturias-Cañaveral"}, {"lat": 40.4698599, "lon": -3.6963625, "nombre": "Metro La Ventilla"}, {"lat": 40.4699919, "lon": -3.6961289, "nombre": "Metro La Ventilla"}, {"lat": 40.4664129, "lon": -3.6905224, "nombre": "Avenida de Asturias-Plaza de Castilla"}, {"lat": 40.4666448, "lon": -3.6901588, "nombre": "Avenida de Asturias-Plaza de Castilla"}, {"lat": 40.471821, "lon": -3.6990819, "nombre": "Avenida de Asturias-Pinos Baja"}, {"lat": 40.4719529, "lon": -3.6988713, "nombre": "Avenida de Asturias-Pinos Baja"}, {"lat": 40.44207, "lon": -3.6541386, "nombre": "Avenida de Badajoz"}, {"lat": 40.4408643, "lon": -3.6562511, "nombre": "Tanatorio M30"}, {"lat": 40.4410126, "lon": -3.6563168, "nombre": "Tanatorio M30"}, {"lat": 40.4741846, "lon": -3.6394867, "nombre": "Av. Barranquilla - Metro San Lorenzo"}, {"lat": 40.4734966, "lon": -3.7116599, "nombre": "Betanzos-Chantada"}, {"lat": 40.4735347, "lon": -3.7118219, "nombre": "Betanzos-Chantada"}, {"lat": 40.4762181, "lon": -3.7115386, "nombre": "Betanzos-La Bañeza"}, {"lat": 40.4763326, "lon": -3.7116984, "nombre": "Betanzos-La Bañeza"}, {"lat": 40.4745682, "lon": -3.711219, "nombre": "Betanzos-Fernández Almagro"}, {"lat": 40.4748548, "lon": -3.7112816, "nombre": "Betanzos-Fernández Almagro"}, {"lat": 40.4794145, "lon": -3.7125834, "nombre": "Betanzos-Avenida de la Ilustración"}, {"lat": 40.4792614, "lon": -3.7127492, "nombre": "Betanzos-Avenida de la Ilustración"}, {"lat": 40.4409108, "lon": -3.6615077, "nombre": "Bristol"}, {"lat": 40.4404349, "lon": -3.6628463, "nombre": "Plaza de Venecia"}, {"lat": 40.4405461, "lon": -3.6630839, "nombre": "Plaza de Venecia"}, {"lat": 40.4723386, "lon": -3.6374963, "nombre": "Bucaramanga-Centro Comercial"}, {"lat": 40.4724417, "lon": -3.6375849, "nombre": "Bucaramanga-Centro Comercial"}, {"lat": 40.4724276, "lon": -3.6393201, "nombre": "Glorieta Charala"}, {"lat": 40.4726162, "lon": -3.6393415, "nombre": "Glorieta Charala"}, {"lat": 40.4894346, "lon": -3.6722894, "nombre": "Avenida de Burgos-Avenida de Manoteras"}, {"lat": 40.4720528, "lon": -3.67598, "nombre": "Buganvilla"}, {"lat": 40.4730589, "lon": -3.675692, "nombre": "Pío XII-Avenida de Burgos"}, {"lat": 40.4807693, "lon": -3.6759273, "nombre": "San Luis-Avenida de Burgos"}, {"lat": 40.4715627, "lon": -3.6758221, "nombre": "Buganvilla"}, {"lat": 40.4942486, "lon": -3.6674641, "nombre": "Avenida de Burgos-Pi y Margall"}, {"lat": 40.4699108, "lon": -3.6763718, "nombre": "Marqués de Torroja"}, {"lat": 40.47039, "lon": -3.6760817, "nombre": "Marqués de Torroja"}, {"lat": 40.4750667, "lon": -3.6759044, "nombre": "Bambú"}, {"lat": 40.4776949, "lon": -3.6753966, "nombre": "Avenida de Burgos-Yuca"}, {"lat": 40.4792856, "lon": -3.6755429, "nombre": "Avenida de Burgos"}, {"lat": 40.4794543, "lon": -3.6757651, "nombre": "Avenida de Burgos"}, {"lat": 40.4872779, "lon": -3.6736702, "nombre": "Nudo de Manoteras"}, {"lat": 40.4899934, "lon": -3.6730214, "nombre": "Avenida de Burgos-Avenida de Manoteras"}, {"lat": 40.4915842, "lon": -3.6721287, "nombre": "Avenida de Burgos 89"}, {"lat": 40.4943464, "lon": -3.6693945, "nombre": "Avenida de Burgos 93"}, {"lat": 40.4788055, "lon": -3.726476, "nombre": "Herrera Oria-Islas Marquesas"}, {"lat": 40.4769981, "lon": -3.7401544, "nombre": "Herrera Oria-Arroyofresno"}, {"lat": 40.4893217, "lon": -3.7004543, "nombre": "Herrera Oria-Carretera de Colmenar"}, {"lat": 40.4765783, "lon": -3.7330054, "nombre": "Herrera Oria-Camino Fuencarral"}, {"lat": 40.4769078, "lon": -3.7331004, "nombre": "Herrera Oria-Camino Fuencarral"}, {"lat": 40.4752199, "lon": -3.7454438, "nombre": "Herrera Oria-Instituto de Estudios Fisca"}, {"lat": 40.4769464, "lon": -3.738431, "nombre": "Herrera Oria-Gascones"}, {"lat": 40.4862996, "lon": -3.7079823, "nombre": "Herrera Oria-Ginzo de Limia"}, {"lat": 40.4812451, "lon": -3.7199255, "nombre": "Herrera Oria-Isla de Arosa"}, {"lat": 40.4813107, "lon": -3.7199687, "nombre": "Herrera Oria-Isla de Arosa"}, {"lat": 40.4820413, "lon": -3.7190027, "nombre": "Herrera Oria-Isla de Arosa"}, {"lat": 40.480228, "lon": -3.7222945, "nombre": "Herrera Oria-Gómez de la Serna"}, {"lat": 40.4904227, "lon": -3.6940284, "nombre": "Herrera Oria-Sicilia"}, {"lat": 40.4906845, "lon": -3.6948152, "nombre": "Herrera Oria-Sicilia"}, {"lat": 40.4784361, "lon": -3.7268324, "nombre": "Herrera Oria-Islas Marquesas"}, {"lat": 40.491001, "lon": -3.6886762, "nombre": "Herrera Oria-Labastida"}, {"lat": 40.4911948, "lon": -3.688102, "nombre": "Herrera Oria-Labastida"}, {"lat": 40.4752641, "lon": -3.7459888, "nombre": "Herrera Oria-Instituto de Estudios Fisca"}, {"lat": 40.4800435, "lon": -3.7236627, "nombre": "Herrera Oria-Gómez de la Serna"}, {"lat": 40.4826485, "lon": -3.7155168, "nombre": "Lacoma"}, {"lat": 40.4411758, "lon": -3.6663783, "nombre": "Avenida Guindalera-Camilo José Cela"}, {"lat": 40.442713, "lon": -3.6672548, "nombre": "Camilo José Cela"}, {"lat": 40.4427316, "lon": -3.6164583, "nombre": "Torre Arias"}, {"lat": 40.4408277, "lon": -3.6153982, "nombre": "Avenida de Canillejas-Néctar"}, {"lat": 40.4408955, "lon": -3.6152695, "nombre": "Avenida de Canillejas-Néctar"}, {"lat": 40.4632544, "lon": -3.6164333, "nombre": "Feria de Madrid"}, {"lat": 40.484354, "lon": -3.7114547, "nombre": "Herrera Oria-Roda de Bara"}, {"lat": 40.4412381, "lon": -3.7266106, "nombre": "Escuela Agronómica"}, {"lat": 40.4453837, "lon": -3.7276331, "nombre": "Avenida Complutense-Ciencias Información"}, {"lat": 40.4433183, "lon": -3.7272595, "nombre": "Av. Complutense - Ciudad Universitaria"}, {"lat": 40.4455618, "lon": -3.7274004, "nombre": "Avenida Complutense-Ciencias Información"}, {"lat": 40.4432819, "lon": -3.7272528, "nombre": "Metro Ciudad Universitaria"}, {"lat": 40.4434435, "lon": -3.7269862, "nombre": "Metro Ciudad Universitaria"}, {"lat": 40.4476696, "lon": -3.7280233, "nombre": "Avenida Complutense-Jardín Botánico"}, {"lat": 40.4476715, "lon": -3.7277167, "nombre": "Avenida Complutense-Jardín Botánico"}, {"lat": 40.4517067, "lon": -3.685046, "nombre": "Sagrados Corazones"}, {"lat": 40.4519342, "lon": -3.6851373, "nombre": "Av. Concha Espina - Pza. S. Corazones"}, {"lat": 40.4515671, "lon": -3.6808965, "nombre": "Hospital San Rafael"}, {"lat": 40.4518301, "lon": -3.6809197, "nombre": "Hospital San Rafael"}, {"lat": 40.4596956, "lon": -3.6158595, "nombre": "Consejo de Europa-Juan de Borbón"}, {"lat": 40.4592436, "lon": -3.6167505, "nombre": "Consejo de Europa-Juan de Borbón"}, {"lat": 40.507719, "lon": -3.6712098, "nombre": "Metro Las Tablas"}, {"lat": 40.5005711, "lon": -3.6745534, "nombre": "Camino De Santiago - Atapuerca"}, {"lat": 40.4966771, "lon": -3.6739588, "nombre": "Camino de Santiago-Valcarlos"}, {"lat": 40.510533, "lon": -3.667351, "nombre": "Monte del Gozo"}, {"lat": 40.5106898, "lon": -3.667701, "nombre": "Las Tablas"}, {"lat": 40.5035669, "lon": -3.6732743, "nombre": "Camino de Santiago-San Juan de Ortega"}, {"lat": 40.5037514, "lon": -3.673636, "nombre": "Camino de Santiago-San Juan de Ortega"}, {"lat": 40.4994223, "lon": -3.6744042, "nombre": "Camino de Santiago-Atapuerca"}, {"lat": 40.5005519, "lon": -3.674112, "nombre": "Camino De Santiago - Atapuerca"}, {"lat": 40.4968115, "lon": -3.6735528, "nombre": "Camino de Santiago-Valcarlos"}, {"lat": 40.4504015, "lon": -3.6000567, "nombre": "Avenida de América-Instituto Barajas"}, {"lat": 40.4504696, "lon": -3.6006721, "nombre": "Avenida de América-Instituto Barajas"}, {"lat": 40.4491284, "lon": -3.6112848, "nombre": "Avenida de Jaca"}, {"lat": 40.4534155, "lon": -3.6249828, "nombre": "Avenida de los Andes-Abelias"}, {"lat": 40.4568456, "lon": -3.6182093, "nombre": "Avenida de los Andes-Centro Comercial"}, {"lat": 40.4574134, "lon": -3.6182346, "nombre": "Avenida de los Andes-Centro Comercial"}, {"lat": 40.4537483, "lon": -3.6251208, "nombre": "Avenida de los Andes-Abelias"}, {"lat": 40.4458007, "lon": -3.6828517, "nombre": "Doctor Arce"}, {"lat": 40.4459307, "lon": -3.683267, "nombre": "Doctor Arce"}, {"lat": 40.4461112, "lon": -3.6821355, "nombre": "Doctor Arce"}, {"lat": 40.4473644, "lon": -3.6804501, "nombre": "Santa Gema"}, {"lat": 40.4474362, "lon": -3.6808527, "nombre": "Santa Gema"}, {"lat": 40.4407261, "lon": -3.7087526, "nombre": "Estadio Vallehermoso"}, {"lat": 40.4521553, "lon": -3.6929627, "nombre": "Palacio de Congresos"}, {"lat": 40.4523558, "lon": -3.69296, "nombre": "Palacio de Congresos"}, {"lat": 40.4526561, "lon": -3.6984392, "nombre": "General Perón-Infanta Mercedes"}, {"lat": 40.4523093, "lon": -3.6954927, "nombre": "General Perón-Orense"}, {"lat": 40.4467104, "lon": -3.7186029, "nombre": "Vicente Aleixandre"}, {"lat": 40.4457218, "lon": -3.7218446, "nombre": "Gregorio del Amo"}, {"lat": 40.4412907, "lon": -3.6638989, "nombre": "Avenida de la Guindalera"}, {"lat": 40.4406975, "lon": -3.6659731, "nombre": "Avenida Guindalera-Camilo José Cela"}, {"lat": 40.4733754, "lon": -3.7351141, "nombre": "Glorieta Francisco Bayéu"}, {"lat": 40.4507946, "lon": -3.6079501, "nombre": "Avenida de Logroño-Canillejas"}, {"lat": 40.4546245, "lon": -3.6216752, "nombre": "Avenida de los Andes-Machupichu"}, {"lat": 40.4548092, "lon": -3.6222119, "nombre": "Avenida de los Andes-Machupichu"}, {"lat": 40.4537588, "lon": -3.61955, "nombre": "Prunos-Petunias"}, {"lat": 40.4545634, "lon": -3.6174319, "nombre": "Prunos-Sándalo"}, {"lat": 40.4575788, "lon": -3.624658, "nombre": "Machupichu-Papa Negro"}, {"lat": 40.4575914, "lon": -3.624976, "nombre": "Machupichu-Papa Negro"}, {"lat": 40.4595468, "lon": -3.627406, "nombre": "Machupichu-Florencio Castillo"}, {"lat": 40.4598434, "lon": -3.6275236, "nombre": "Machupichu-Florencio Castillo"}, {"lat": 40.4644372, "lon": -3.6355889, "nombre": "Machupichu-Mota del Cuervo"}, {"lat": 40.4648405, "lon": -3.6354991, "nombre": "Machupichu-Mota del Cuervo"}, {"lat": 40.4606924, "lon": -3.6329248, "nombre": "Machupichu-Manuel Rodrigo"}, {"lat": 40.4608798, "lon": -3.6329949, "nombre": "Machupichu-Manuel Rodrigo"}, {"lat": 40.4622294, "lon": -3.6352173, "nombre": "Machupichu-Silvano"}, {"lat": 40.4622414, "lon": -3.635487, "nombre": "Machupichu-Silvano"}, {"lat": 40.488937, "lon": -3.671871, "nombre": "Avenida de Burgos-Avenida de Manoteras"}, {"lat": 40.4890555, "lon": -3.6720366, "nombre": "Avenida de Burgos-Avenida de Manoteras"}, {"lat": 40.4873543, "lon": -3.6609081, "nombre": "Metro Virgen del Cortijo"}, {"lat": 40.4877386, "lon": -3.6632159, "nombre": "Avenida de Manoteras-Fuente de la Mora"}, {"lat": 40.4886539, "lon": -3.669421, "nombre": "Avenida de Manoteras-Oña"}, {"lat": 40.4880334, "lon": -3.6680586, "nombre": "Avenida de Manoteras"}, {"lat": 40.4883508, "lon": -3.6673059, "nombre": "Avenida de Manoteras"}, {"lat": 40.4880601, "lon": -3.6655856, "nombre": "Virgen del Cortijo"}, {"lat": 40.4880118, "lon": -3.6651698, "nombre": "Virgen del Cortijo"}, {"lat": 40.4608842, "lon": -3.7250605, "nombre": "Puerta de Hierro"}, {"lat": 40.4798215, "lon": -3.6307352, "nombre": "Maruja Mallo-Montoro"}, {"lat": 40.4786447, "lon": -3.6309554, "nombre": "Maruja Mallo-Camino del Olivar"}, {"lat": 40.4575011, "lon": -3.7299131, "nombre": "Avenida de Miraflores-Dehesa de la Villa"}, {"lat": 40.4575966, "lon": -3.7296046, "nombre": "Avenida de Miraflores-Dehesa de la Villa"}, {"lat": 40.4510477, "lon": -3.7195708, "nombre": "Colegio Mayor Alfonso X El Sabio"}, {"lat": 40.4488822, "lon": -3.7213976, "nombre": "Ramiro de Maeztu-Moreras"}, {"lat": 40.4593799, "lon": -3.7794939, "nombre": "Osa Mayor-Carretera de Húmera"}, {"lat": 40.4563228, "lon": -3.7124314, "nombre": "Metro Francos Rodríguez"}, {"lat": 40.4566616, "lon": -3.7119273, "nombre": "Metro Francos Rodríguez"}, {"lat": 40.4533435, "lon": -3.7124611, "nombre": "Rubio y Galí-Pablo Iglesias"}, {"lat": 40.4537843, "lon": -3.7124913, "nombre": "Rubio y Galí-Pablo Iglesias"}, {"lat": 40.4622528, "lon": -3.7693786, "nombre": "Padre Huidobro-Carretera de Castilla"}, {"lat": 40.461704, "lon": -3.7693698, "nombre": "Padre Huidobro-Carretera de Castilla"}, {"lat": 40.4590289, "lon": -3.7483697, "nombre": "Puente de San Fernando"}, {"lat": 40.4624331, "lon": -3.6760361, "nombre": "Pío XII"}, {"lat": 40.4651939, "lon": -3.6756848, "nombre": "Pío XII-Comandante Franco"}, {"lat": 40.4653573, "lon": -3.6754256, "nombre": "Pío XII-Comandante Franco"}, {"lat": 40.4707649, "lon": -3.6733154, "nombre": "Pío XII-La Paloma"}, {"lat": 40.4713543, "lon": -3.6738169, "nombre": "Pío XII"}, {"lat": 40.4682422, "lon": -3.6736184, "nombre": "Nunciatura"}, {"lat": 40.4686697, "lon": -3.6736226, "nombre": "Nunciatura"}, {"lat": 40.4607646, "lon": -3.6767283, "nombre": "Plaza del Perú"}, {"lat": 40.4607602, "lon": -3.6763887, "nombre": "Plaza del Perú"}, {"lat": 40.4624532, "lon": -3.6762897, "nombre": "Pío XII"}, {"lat": 40.4717362, "lon": -3.6738774, "nombre": "Pío XII-La Paloma"}, {"lat": 40.441096, "lon": -3.7285067, "nombre": "Escuela Agronómica"}, {"lat": 40.4417104, "lon": -3.730136, "nombre": "Escuela Agronómica"}, {"lat": 40.4486195, "lon": -3.7358767, "nombre": "Estadística-Geografía e Historia"}, {"lat": 40.4440303, "lon": -3.7323614, "nombre": "Palacio de la Moncloa"}, {"lat": 40.4441224, "lon": -3.7318582, "nombre": "Palacio de la Moncloa"}, {"lat": 40.4535685, "lon": -3.6611489, "nombre": "Avenida de la Paz"}, {"lat": 40.453643, "lon": -3.6616793, "nombre": "Avenida de la Paz"}, {"lat": 40.4522912, "lon": -3.6682585, "nombre": "Alfonso XIII-Ramón y Cajal"}, {"lat": 40.4525265, "lon": -3.6685281, "nombre": "Alfonso XIII-Ramón y Cajal"}, {"lat": 40.4524901, "lon": -3.6650055, "nombre": "Padre Claret-Ramón y Cajal"}, {"lat": 40.4525297, "lon": -3.6659641, "nombre": "Padre Claret-Ramón y Cajal"}, {"lat": 40.4515116, "lon": -3.6768479, "nombre": "Parque de Berlín"}, {"lat": 40.4517401, "lon": -3.6771442, "nombre": "Parque de Berlín"}, {"lat": 40.4515104, "lon": -3.6740023, "nombre": "Ramón y Cajal-Víctor de la Serna"}, {"lat": 40.45177, "lon": -3.6740904, "nombre": "Ramón y Cajal-Víctor de la Serna"}, {"lat": 40.4521858, "lon": -3.6709109, "nombre": "Ramón y Cajal-Gabriel y Galán"}, {"lat": 40.4523822, "lon": -3.6709878, "nombre": "Ramón y Cajal-Gabriel y Galán"}, {"lat": 40.4468852, "lon": -3.7071776, "nombre": "Cruz Roja"}, {"lat": 40.4472279, "lon": -3.7079223, "nombre": "Cruz Roja"}, {"lat": 40.446984, "lon": -3.7050208, "nombre": "Cuatro Caminos"}, {"lat": 40.4465632, "lon": -3.7110815, "nombre": "Ibáñez Ibero"}, {"lat": 40.4468567, "lon": -3.7110591, "nombre": "Ibáñez Ibero"}, {"lat": 40.4457602, "lon": -3.7142038, "nombre": "Metro Guzmán el Bueno"}, {"lat": 40.4461726, "lon": -3.7125933, "nombre": "Guzmán El Bueno"}, {"lat": 40.4754418, "lon": -3.6677817, "nombre": "San Luis-Arturo Soria"}, {"lat": 40.4757419, "lon": -3.6679608, "nombre": "San Luis-Arturo Soria"}, {"lat": 40.4805432, "lon": -3.6748568, "nombre": "San Luis-Avenida de Burgos"}, {"lat": 40.4807821, "lon": -3.6749343, "nombre": "San Luis-Avenida de Burgos"}, {"lat": 40.471009, "lon": -3.6588672, "nombre": "San Luis-Añastro"}, {"lat": 40.471332, "lon": -3.6588569, "nombre": "San Luis-Añastro"}, {"lat": 40.4716267, "lon": -3.6544895, "nombre": "Colonia Pinar del Rey"}, {"lat": 40.4717654, "lon": -3.6546427, "nombre": "Colonia Pinar del Rey"}, {"lat": 40.4794941, "lon": -3.6721262, "nombre": "Condado de Treviño"}, {"lat": 40.4797076, "lon": -3.672592, "nombre": "Condado de Treviño"}, {"lat": 40.4725101, "lon": -3.6519898, "nombre": "San Luis-Solsona"}, {"lat": 40.4710777, "lon": -3.657034, "nombre": "San Luis-Estación Hortaleza"}, {"lat": 40.4712161, "lon": -3.6571543, "nombre": "San Luis-Estación Hortaleza"}, {"lat": 40.473265, "lon": -3.6634289, "nombre": "San Luis-Almanzora"}, {"lat": 40.4734916, "lon": -3.6631869, "nombre": "San Luis-Almanzora"}, {"lat": 40.4749134, "lon": -3.6658893, "nombre": "San Luis-Mesena"}, {"lat": 40.4747017, "lon": -3.665826, "nombre": "San Luis-Mesena"}, {"lat": 40.4727673, "lon": -3.6495833, "nombre": "San Luis-Santos de la Humosa"}, {"lat": 40.4730534, "lon": -3.6495825, "nombre": "San Luis-Santos de la Humosa"}, {"lat": 40.4773796, "lon": -3.6709058, "nombre": "Serrano Galvache"}, {"lat": 40.4777763, "lon": -3.6708397, "nombre": "Serrano Galvache"}, {"lat": 40.4723399, "lon": -3.6518211, "nombre": "San Luis-Solsona"}, {"lat": 40.5087063, "lon": -3.6709584, "nombre": "Metro Las Tablas"}, {"lat": 40.5081562, "lon": -3.6770839, "nombre": "Santo Domingo Calzada-Castiello de Jaca"}, {"lat": 40.5083916, "lon": -3.6772696, "nombre": "Santo Domingo Calzada-Castiello de Jaca"}, {"lat": 40.5087645, "lon": -3.6725096, "nombre": "Santo Domingo de la Calzada-Rabanal"}, {"lat": 40.5090382, "lon": -3.6733533, "nombre": "Santo Domingo de la Calzada-Rabanal"}, {"lat": 40.4703737, "lon": -3.7782732, "nombre": "Valdemarín-Cisne"}, {"lat": 40.4700532, "lon": -3.7784338, "nombre": "Valdemarín-Cisne"}, {"lat": 40.4706992, "lon": -3.7733239, "nombre": "Valdemarín-Lavadero"}, {"lat": 40.4704032, "lon": -3.7732711, "nombre": "Valdemarín-Lavadero"}, {"lat": 40.4527685, "lon": -3.7024505, "nombre": "Estrecho"}, {"lat": 40.4699622, "lon": -3.6419516, "nombre": "Ayacucho-Sandro Pertini"}, {"lat": 40.4699379, "lon": -3.639052, "nombre": "Ayacucho"}, {"lat": 40.469554, "lon": -3.634351, "nombre": "Ayacucho-Nevado del Ruiz"}, {"lat": 40.4754215, "lon": -3.6612676, "nombre": "Almanzora-Bacares"}, {"lat": 40.4782852, "lon": -3.6646108, "nombre": "Bacares-Golfo de Salónica"}, {"lat": 40.47694, "lon": -3.6629607, "nombre": "Bacares-Vélez Blanco"}, {"lat": 40.4762728, "lon": -3.6623414, "nombre": "Manoteras"}, {"lat": 40.4764249, "lon": -3.6625361, "nombre": "Manoteras"}, {"lat": 40.4739463, "lon": -3.6774749, "nombre": "Bambú"}, {"lat": 40.4767897, "lon": -3.6763438, "nombre": "Bambú-Yuca"}, {"lat": 40.4465563, "lon": -3.7137861, "nombre": "Beatriz de Bobadilla"}, {"lat": 40.4560618, "lon": -3.6184777, "nombre": "Boj"}, {"lat": 40.4957178, "lon": -3.696107, "nombre": "Braille-Caldas de Estrach"}, {"lat": 40.4956844, "lon": -3.6933282, "nombre": "Braille-Molins de Rey"}, {"lat": 40.495915, "lon": -3.6931838, "nombre": "Braille-Molins de Rey"}, {"lat": 40.464949, "lon": -3.69352, "nombre": "Junta Municipal Tetuán"}, {"lat": 40.4652538, "lon": -3.6932149, "nombre": "Junta Municipal Tetuán"}, {"lat": 40.4489882, "lon": -3.7037865, "nombre": "Alvarado"}, {"lat": 40.4631805, "lon": -3.6968694, "nombre": "Plaza de la Remonta"}, {"lat": 40.4513332, "lon": -3.7034398, "nombre": "Teruel"}, {"lat": 40.4434571, "lon": -3.7041813, "nombre": "Bravo Murillo-Cristóbal Bordiú"}, {"lat": 40.4545273, "lon": -3.7029412, "nombre": "Estrecho"}, {"lat": 40.4589174, "lon": -3.7000559, "nombre": "Bravo Murillo-María Zayas"}, {"lat": 40.4416992, "lon": -3.7042209, "nombre": "Juan Zorrilla"}, {"lat": 40.4565921, "lon": -3.7021926, "nombre": "Bravo Murillo-Lope de Haro"}, {"lat": 40.4566897, "lon": -3.7018626, "nombre": "Bravo Murillo-Lope de Haro"}, {"lat": 40.4548026, "lon": -3.7026173, "nombre": "Estrecho"}, {"lat": 40.4585406, "lon": -3.7007088, "nombre": "Bravo Murillo-María Zayas"}, {"lat": 40.4612587, "lon": -3.6982114, "nombre": "Metro Tetuán"}, {"lat": 40.4453492, "lon": -3.7041025, "nombre": "Cuatro Caminos"}, {"lat": 40.4456103, "lon": -3.7041073, "nombre": "Cuatro Caminos"}, {"lat": 40.4491996, "lon": -3.7034995, "nombre": "Alvarado"}, {"lat": 40.4657636, "lon": -3.6906381, "nombre": "Bravo Murillo-Plaza Castilla"}, {"lat": 40.4654545, "lon": -3.6903424, "nombre": "Plaza Castilla"}, {"lat": 40.4636763, "lon": -3.6961613, "nombre": "Plaza de la Remonta"}, {"lat": 40.4610125, "lon": -3.6981048, "nombre": "Metro Tetuán"}, {"lat": 40.4515601, "lon": -3.7031365, "nombre": "Teruel"}, {"lat": 40.4673363, "lon": -3.6752438, "nombre": "Nunciatura"}, {"lat": 40.4674449, "lon": -3.6751678, "nombre": "Nunciatura"}, {"lat": 40.4664636, "lon": -3.6727278, "nombre": "Caidos División Azul"}, {"lat": 40.4667697, "lon": -3.6727544, "nombre": "Caidos División Azul"}, {"lat": 40.4680166, "lon": -3.6778305, "nombre": "Duque de Pastrana"}, {"lat": 40.4810322, "lon": -3.6309364, "nombre": "Caléndula - Quinta"}, {"lat": 40.5004328, "lon": -3.6926075, "nombre": "Campo de Calatrava"}, {"lat": 40.5005018, "lon": -3.69311, "nombre": "Campo de Calatrava"}, {"lat": 40.4612641, "lon": -3.6154444, "nombre": "Parque Juan Carlos I"}, {"lat": 40.4614189, "lon": -3.6159801, "nombre": "Parque Juan Carlos I"}, {"lat": 40.4639584, "lon": -3.6167904, "nombre": "Feria de Madrid"}, {"lat": 40.4412045, "lon": -3.6087918, "nombre": "Esfinge-Canal del Bósforo"}, {"lat": 40.4493809, "lon": -3.6096658, "nombre": "Canillejas"}, {"lat": 40.4498871, "lon": -3.6075396, "nombre": "Canillejas"}, {"lat": 40.4500368, "lon": -3.6083291, "nombre": "Canillejas"}, {"lat": 40.4753568, "lon": -3.7418179, "nombre": "Cantalejo-Arroyofresno"}, {"lat": 40.4753589, "lon": -3.7414876, "nombre": "Cantalejo-Arroyofresno"}, {"lat": 40.4746638, "lon": -3.738875, "nombre": "Cantalejo-Chapineria"}, {"lat": 40.4746975, "lon": -3.7392625, "nombre": "Cantalejo-Chapineria"}, {"lat": 40.4659791, "lon": -3.7012409, "nombre": "Blanco Argibay-Moquetas"}, {"lat": 40.4653281, "lon": -3.698656, "nombre": "Blanco Argibay-Muller"}, {"lat": 40.4667717, "lon": -3.7034986, "nombre": "Blanco Argibay-Pinos Baja"}, {"lat": 40.4675994, "lon": -3.7059036, "nombre": "Blanco Argibay-Sorgo"}, {"lat": 40.4647925, "lon": -3.6963253, "nombre": "Capitán Blanco Argibay - Torrijos"}, {"lat": 40.4572863, "lon": -3.6921044, "nombre": "Joan Maragall - San Germán"}, {"lat": 40.464083, "lon": -3.6914584, "nombre": "Joan Maragall-INE"}, {"lat": 40.454321, "lon": -3.6923229, "nombre": "Joan Maragall-Pedro Teixeira"}, {"lat": 40.4619214, "lon": -3.6916295, "nombre": "Joan Maragall-Rosario Pino"}, {"lat": 40.4594826, "lon": -3.6918697, "nombre": "Joan Maragall-Sor Ángela de la Cruz"}, {"lat": 40.4425561, "lon": -3.6757927, "nombre": "Cartagena-López de Hoyos"}, {"lat": 40.4424907, "lon": -3.675593, "nombre": "Cartagena-López de Hoyos"}, {"lat": 40.5037955, "lon": -3.6765618, "nombre": "Castiello de Jaca-Burguete"}, {"lat": 40.5043564, "lon": -3.6764656, "nombre": "Castiello De Jaca - Burguete"}, {"lat": 40.501741, "lon": -3.6758256, "nombre": "Castiello de Jaca-Puente la Reina"}, {"lat": 40.5024215, "lon": -3.6757705, "nombre": "Castiello de Jaca-Puente la Reina"}, {"lat": 40.5073855, "lon": -3.6778227, "nombre": "Castiello de Jaca-Berdún"}, {"lat": 40.4993192, "lon": -3.6749321, "nombre": "Camino de Santiago-Atapuerca"}, {"lat": 40.4747141, "lon": -3.6388392, "nombre": "San Lorenzo"}, {"lat": 40.475042, "lon": -3.6391425, "nombre": "San Lorenzo"}, {"lat": 40.5067118, "lon": -3.7007239, "nombre": "Cementerio de Fuencarral"}, {"lat": 40.4918009, "lon": -3.713492, "nombre": "Cerro del Castañar"}, {"lat": 40.4921941, "lon": -3.713547, "nombre": "Cerro del Castañar"}, {"lat": 40.4939832, "lon": -3.7138689, "nombre": "Moralzarzal"}, {"lat": 40.4869403, "lon": -3.7222053, "nombre": "Riscos de Polanco"}, {"lat": 40.4867657, "lon": -3.7169139, "nombre": "Ventisquero de la Condesa-Cerro Minguete"}, {"lat": 40.4868698, "lon": -3.7169958, "nombre": "Ventisquero de la Condesa-Cerro Minguete"}, {"lat": 40.4739712, "lon": -3.7208606, "nombre": "César Manrique-Chantada"}, {"lat": 40.4739634, "lon": -3.7206655, "nombre": "César Manrique-Chantada"}, {"lat": 40.4722864, "lon": -3.720161, "nombre": "César Manrique-La Cabrera"}, {"lat": 40.4724828, "lon": -3.7204377, "nombre": "César Manrique-La Cabrera"}, {"lat": 40.4731861, "lon": -3.7181695, "nombre": "Chantada-Cándido Mateos"}, {"lat": 40.4733259, "lon": -3.7181548, "nombre": "Chantada-Cándido Mateos"}, {"lat": 40.4736373, "lon": -3.7202196, "nombre": "César Manrique-Chantada"}, {"lat": 40.4737908, "lon": -3.720177, "nombre": "César Manrique-Chantada"}, {"lat": 40.4724543, "lon": -3.7104763, "nombre": "Ribadavia-Chantada"}, {"lat": 40.4492434, "lon": -3.6794837, "nombre": "Plaza de Cataluña"}, {"lat": 40.4501543, "lon": -3.6818358, "nombre": "Cinca"}, {"lat": 40.4408696, "lon": -3.6726073, "nombre": "Clara del Rey-Padre Xifré"}, {"lat": 40.4426272, "lon": -3.6701383, "nombre": "Clara del Rey-Cardenal Silíceo"}, {"lat": 40.4469416, "lon": -3.6679524, "nombre": "Clara del Rey-Ramos Carrión"}, {"lat": 40.4447492, "lon": -3.6685137, "nombre": "Clara del Rey-Santa Hortensia"}, {"lat": 40.455598, "lon": -3.7676303, "nombre": "Carretera de Castilla-Colegio Rosales"}, {"lat": 40.4520844, "lon": -3.689311, "nombre": "Lima-Santiago Bernabéu"}, {"lat": 40.4519326, "lon": -3.6894824, "nombre": "Concha Espina - Pza. Lima"}, {"lat": 40.4520032, "lon": -3.6866856, "nombre": "Concha Espina - Pza. Sagrados Corazones"}, {"lat": 40.4536465, "lon": -3.6146721, "nombre": "Conde de las Posadas"}, {"lat": 40.4458569, "lon": -3.6511907, "nombre": "Condesa de Venadito"}, {"lat": 40.4467575, "lon": -3.6496311, "nombre": "Arturo Soria-Condesa de Venadito"}, {"lat": 40.4453976, "lon": -3.6518962, "nombre": "Condesa de Venadito"}, {"lat": 40.4443639, "lon": -3.6539356, "nombre": "Condesa de Venadito-Torrelaguna"}, {"lat": 40.4420085, "lon": -3.6688525, "nombre": "Corazón de María-Cardenal Siliceo"}, {"lat": 40.4403679, "lon": -3.6716979, "nombre": "Corazón de María-Padre Xifré"}, {"lat": 40.4488364, "lon": -3.6664198, "nombre": "Metro Alfonso XIII"}, {"lat": 40.4482639, "lon": -3.6660128, "nombre": "San Nazario"}, {"lat": 40.4437244, "lon": -3.6671201, "nombre": "Santa Hortensia"}, {"lat": 40.4444617, "lon": -3.6673674, "nombre": "Santa Hortensia"}, {"lat": 40.4460998, "lon": -3.6665723, "nombre": "Corazón de María-Santa Rita"}, {"lat": 40.4461888, "lon": -3.6668493, "nombre": "Corazón de María-Santa Rita"}, {"lat": 40.4955617, "lon": -3.7017172, "nombre": "Centro Universitario Villanueva"}, {"lat": 40.4968631, "lon": -3.7047601, "nombre": "Costa Brava-La Masó"}, {"lat": 40.4970126, "lon": -3.7046118, "nombre": "Costa Brava-La Masó"}, {"lat": 40.4991289, "lon": -3.708711, "nombre": "Paco de Lucía"}, {"lat": 40.4991587, "lon": -3.7085301, "nombre": "Paco de Lucía"}, {"lat": 40.4980396, "lon": -3.7069895, "nombre": "Costa Brava-Fuenfría"}, {"lat": 40.4983838, "lon": -3.7072696, "nombre": "Costa Brava-Fuenfría"}, {"lat": 40.495125, "lon": -3.7017625, "nombre": "Centro Universitario Villanueva"}, {"lat": 40.4583947, "lon": -3.6754542, "nombre": "Chile"}, {"lat": 40.4585971, "lon": -3.6723384, "nombre": "Costa Rica"}, {"lat": 40.4587281, "lon": -3.6690534, "nombre": "José María Soler"}, {"lat": 40.458988, "lon": -3.6692919, "nombre": "José María Soler"}, {"lat": 40.4587367, "lon": -3.6759801, "nombre": "Chile"}, {"lat": 40.4583636, "lon": -3.6722633, "nombre": "Costa Rica"}, {"lat": 40.4430758, "lon": -3.7008685, "nombre": "Alenza"}, {"lat": 40.4429154, "lon": -3.6976012, "nombre": "Cristóbal Bordiú-Alonso Cano"}, {"lat": 40.4431921, "lon": -3.703424, "nombre": "Cristóbal Bordiú-Santa Engracia"}, {"lat": 40.4635137, "lon": -3.6537105, "nombre": "Carretera de Canillas-Carril del Conde"}, {"lat": 40.4637184, "lon": -3.6533638, "nombre": "Carretera de Canillas-Carril del Conde"}, {"lat": 40.465293, "lon": -3.6363913, "nombre": "Emigrantes-Carretera de Canillas"}, {"lat": 40.4630927, "lon": -3.6477064, "nombre": "Carretera de Canillas-Gomeznarro"}, {"lat": 40.4632582, "lon": -3.6474736, "nombre": "Carretera de Canillas-Gomeznarro"}, {"lat": 40.4629512, "lon": -3.6576346, "nombre": "Junta Municipal de Hortaleza"}, {"lat": 40.4631701, "lon": -3.6571498, "nombre": "Junta Municipal de Hortaleza"}, {"lat": 40.462868, "lon": -3.6508311, "nombre": "Carretera de Canillas-Benita Ávila"}, {"lat": 40.4630693, "lon": -3.6510711, "nombre": "Carretera de Canillas-Benita Ávila"}, {"lat": 40.4651259, "lon": -3.637175, "nombre": "Emigrantes-Carretera de Canillas"}, {"lat": 40.4648112, "lon": -3.6415554, "nombre": "Carretera de Canillas-Torquemada"}, {"lat": 40.4650196, "lon": -3.6415402, "nombre": "Carretera de Canillas-Torquemada"}, {"lat": 40.4636932, "lon": -3.6458467, "nombre": "Carretera de Canillas-Utrillas"}, {"lat": 40.4637791, "lon": -3.6449871, "nombre": "Carretera de Canillas-Utrillas"}, {"lat": 40.4515243, "lon": -3.7638557, "nombre": "Carretera de Castilla-IESE"}, {"lat": 40.455853, "lon": -3.7672699, "nombre": "Carretera de Castilla-Colegio Rosales"}, {"lat": 40.449783, "lon": -3.7631594, "nombre": "Vía de las Dos Castillas"}, {"lat": 40.4927455, "lon": -3.6985824, "nombre": "Carretera de Colmenar-Badalona"}, {"lat": 40.4870925, "lon": -3.6969934, "nombre": "Hospital Ramón y Cajal"}, {"lat": 40.5167139, "lon": -3.6696574, "nombre": "Carretera de Alcobendas-M40"}, {"lat": 40.5132106, "lon": -3.6789106, "nombre": "Carretera de Alcobendas-Bercianos"}, {"lat": 40.513796, "lon": -3.6776728, "nombre": "Carretera de Alcobendas-Bercianos"}, {"lat": 40.5157187, "lon": -3.6714324, "nombre": "Carretera de Alcobendas-Isabel Colbrand"}, {"lat": 40.4476553, "lon": -3.7773266, "nombre": "Ctra. Húmera a Aravaca - Av. Talgo"}, {"lat": 40.4583694, "lon": -3.7789772, "nombre": "Carretera de Húmera-Fuente del Rey"}, {"lat": 40.4583913, "lon": -3.7790777, "nombre": "Carretera de Húmera-Fuente del Rey"}, {"lat": 40.4594054, "lon": -3.7790703, "nombre": "Osa Mayor-Carretera de Húmera"}, {"lat": 40.4569088, "lon": -3.779821, "nombre": "Carretera de Húmera-Riaza"}, {"lat": 40.4507718, "lon": -3.7785925, "nombre": "Ctra. Húmera a Aravaca - Río Nela"}, {"lat": 40.4494758, "lon": -3.7772296, "nombre": "Ctra. Húmera a Aravaca - Valle De Pas"}, {"lat": 40.4707948, "lon": -3.7500963, "nombre": "Escuela ESCP"}, {"lat": 40.471845, "lon": -3.7510792, "nombre": "Centro de Estudios Europe"}, {"lat": 40.4687855, "lon": -3.7504214, "nombre": "Instituto Llorente"}, {"lat": 40.4689123, "lon": -3.7495727, "nombre": "Instituto Llorente"}, {"lat": 40.4524266, "lon": -3.7392836, "nombre": "Carretera de El Pardo"}, {"lat": 40.4738096, "lon": -3.6630633, "nombre": "San Luis-Almanzora"}, {"lat": 40.4739522, "lon": -3.6630753, "nombre": "San Luis-Almanzora"}, {"lat": 40.4754784, "lon": -3.6607739, "nombre": "Almanzora-Bacares"}, {"lat": 40.4801831, "lon": -3.657244, "nombre": "Mojácar"}, {"lat": 40.4803558, "lon": -3.6569894, "nombre": "Mojácar"}, {"lat": 40.4769039, "lon": -3.6588165, "nombre": "Almanzora"}, {"lat": 40.4801119, "lon": -3.6311815, "nombre": "Maruja Mallo-Montoro"}, {"lat": 40.4800306, "lon": -3.6328761, "nombre": "Camino Viejo de Burgos"}, {"lat": 40.4679191, "lon": -3.711719, "nombre": "Camino del Chorrillo"}, {"lat": 40.468231, "lon": -3.7118275, "nombre": "Camino del Chorrillo"}, {"lat": 40.4769368, "lon": -3.6285953, "nombre": "Las Cárcavas"}, {"lat": 40.485685, "lon": -3.6608811, "nombre": "Ingeniero Herrera-Príncipe Carlos"}, {"lat": 40.4856695, "lon": -3.6630638, "nombre": "Fuente de la Mora"}, {"lat": 40.485588, "lon": -3.6652189, "nombre": "Camino Fuente de la Mora"}, {"lat": 40.4806805, "lon": -3.6326376, "nombre": "Cº Viejo de Burgos - Murias de Paredes"}, {"lat": 40.4797805, "lon": -3.6669998, "nombre": "Pinar de Chamartín"}, {"lat": 40.4799303, "lon": -3.6670141, "nombre": "Pinar de Chamartín"}, {"lat": 40.4785975, "lon": -3.665307, "nombre": "Bacares-Golfo de Salónica"}, {"lat": 40.4654418, "lon": -3.7661043, "nombre": "Darío Aparicio-Cabo Cañaveral"}, {"lat": 40.4654966, "lon": -3.7659961, "nombre": "Darío Aparicio-Cabo Cañaveral"}, {"lat": 40.4685296, "lon": -3.7671368, "nombre": "Darío Aparicio-Tapia de Casariego"}, {"lat": 40.4685469, "lon": -3.7672365, "nombre": "Darío Aparicio-Tapia de Casariego"}, {"lat": 40.4704027, "lon": -3.7686092, "nombre": "Darío Aparicio 35"}, {"lat": 40.4704577, "lon": -3.7684612, "nombre": "Darío Aparicio 35"}, {"lat": 40.472006, "lon": -3.7706825, "nombre": "Darío Aparicio-Viñas del Pardo"}, {"lat": 40.4721049, "lon": -3.7707385, "nombre": "Darío Aparicio-Viñas del Pardo"}, {"lat": 40.5149242, "lon": -3.666329, "nombre": "Ronda Comunicación-Edificio Oeste 2"}, {"lat": 40.5168338, "lon": -3.6659281, "nombre": "Distrito C Edificio Sur"}, {"lat": 40.4509755, "lon": -3.7095789, "nombre": "Rubio y Galí-Aranjuez"}, {"lat": 40.4505827, "lon": -3.7094549, "nombre": "Rubio y Galí-Aranjuez"}, {"lat": 40.4491182, "lon": -3.7090081, "nombre": "Rubio y Galí-Almansa"}, {"lat": 40.4491625, "lon": -3.7089156, "nombre": "Rubio y Galí-Almansa"}, {"lat": 40.4526518, "lon": -3.712626, "nombre": "Rubio y Galí-Pablo Iglesias"}, {"lat": 40.4527214, "lon": -3.7124636, "nombre": "Rubio y Galí-Pablo Iglesias"}, {"lat": 40.455382, "lon": -3.7143998, "nombre": "Rubio y Galí-Francisco de Diego"}, {"lat": 40.4553503, "lon": -3.7145599, "nombre": "Rubio y Galí-Francisco de Diego"}, {"lat": 40.4572397, "lon": -3.7131375, "nombre": "Rubio y Galí-Francos Rodríguez"}, {"lat": 40.4572726, "lon": -3.7133157, "nombre": "Rubio y Galí-Francos Rodríguez"}, {"lat": 40.4522141, "lon": -3.7097332, "nombre": "Rubio y Galí-Jerónima Llorente"}, {"lat": 40.4523973, "lon": -3.7099444, "nombre": "Rubio y Galí-Jerónima Llorente"}, {"lat": 40.4477823, "lon": -3.7081678, "nombre": "Cruz Roja"}, {"lat": 40.4477964, "lon": -3.7083736, "nombre": "Cruz Roja"}, {"lat": 40.4724437, "lon": -3.733512, "nombre": "Doctor Castroviejo-Avenida de Miraflores"}, {"lat": 40.4739643, "lon": -3.7237874, "nombre": "Joaquín Lorenzo-Doctor Castroviejo"}, {"lat": 40.4736556, "lon": -3.7245168, "nombre": "Joaquín Lorenzo-Doctor Castroviejo"}, {"lat": 40.4727304, "lon": -3.7276194, "nombre": "Doctor Castroviejo-López Ibor"}, {"lat": 40.4633416, "lon": -3.6704556, "nombre": "Santamarca"}, {"lat": 40.4625926, "lon": -3.6630272, "nombre": "Arturo Soria-Emeterio Castaños"}, {"lat": 40.4641689, "lon": -3.6612323, "nombre": "Emeterio Castaños"}, {"lat": 40.4609417, "lon": -3.6616698, "nombre": "Emilio Rubín"}, {"lat": 40.4490785, "lon": -3.6518332, "nombre": "Nuestra Señora de América"}, {"lat": 40.4471922, "lon": -3.6561889, "nombre": "Torrelaguna-Emilio Vargas"}, {"lat": 40.4682117, "lon": -3.6864792, "nombre": "Enrique Larreta"}, {"lat": 40.4682724, "lon": -3.6867667, "nombre": "Enrique Larreta"}, {"lat": 40.4416479, "lon": -3.6084969, "nombre": "Esfinge-Canal del Bósforo"}, {"lat": 40.4402068, "lon": -3.607763, "nombre": "Barrio Canillejas"}, {"lat": 40.5013031, "lon": -3.6823845, "nombre": "Fuencarral Cercanías"}, {"lat": 40.4483859, "lon": -3.7258612, "nombre": "Ciencias Biológicas y Geológicas"}, {"lat": 40.448548, "lon": -3.7258677, "nombre": "Ciencias Biológicas y Geológicas"}, {"lat": 40.4493195, "lon": -3.7368749, "nombre": "Veterinaria"}, {"lat": 40.4937707, "lon": -3.6647075, "nombre": "Pi y Margall-Ana de Austria"}, {"lat": 40.4920671, "lon": -3.6619806, "nombre": "Pi y Margall-Isabel de Valois"}, {"lat": 40.4923005, "lon": -3.6617377, "nombre": "Pi y Margall-Isabel de Valois"}, {"lat": 40.4940925, "lon": -3.6645575, "nombre": "Pi y Margall-Ana de Austria"}, {"lat": 40.4883117, "lon": -3.6549913, "nombre": "Alcalde Moreno Torres"}, {"lat": 40.4857743, "lon": -3.6475521, "nombre": "Pi y Margall-Alcalá Zamora"}, {"lat": 40.4859781, "lon": -3.647657, "nombre": "Pi y Margall-Alcalá Zamora"}, {"lat": 40.4866719, "lon": -3.6507093, "nombre": "Pi y Margall-Príncipe Carlos"}, {"lat": 40.4870448, "lon": -3.6506847, "nombre": "Pi y Margall-Príncipe Carlos"}, {"lat": 40.4898663, "lon": -3.6585155, "nombre": "Pi y Margall-Blasco Ibáñez"}, {"lat": 40.4592989, "lon": -3.7182509, "nombre": "Francos Rodríguez-Antonio Machado"}, {"lat": 40.4596245, "lon": -3.7186451, "nombre": "Francos Rodríguez-Antonio Machado"}, {"lat": 40.4548379, "lon": -3.7036452, "nombre": "Estrecho"}, {"lat": 40.4551027, "lon": -3.703862, "nombre": "Francos Rodríguez-Estrecho"}, {"lat": 40.4570521, "lon": -3.7091707, "nombre": "Francos Rodríguez-Numancia"}, {"lat": 40.4573495, "lon": -3.7102604, "nombre": "Francos Rodríguez-Numancia"}, {"lat": 40.4584018, "lon": -3.7153919, "nombre": "Instituto La Paloma"}, {"lat": 40.458542, "lon": -3.7151652, "nombre": "Instituto La Paloma"}, {"lat": 40.4565299, "lon": -3.7053591, "nombre": "Francos Rodríguez-Villaamil"}, {"lat": 40.4566122, "lon": -3.7053561, "nombre": "Francos Rodríguez-Villaamil"}, {"lat": 40.4577641, "lon": -3.7121238, "nombre": "Metro Francos Rodríguez"}, {"lat": 40.4574597, "lon": -3.7121456, "nombre": "Metro Francos Rodríguez"}, {"lat": 40.5107231, "lon": -3.6791773, "nombre": "Federico Mompou-Isabel Colbrand"}, {"lat": 40.481508, "lon": -3.71442, "nombre": "Fermín Caballero-Betanzos"}, {"lat": 40.4816869, "lon": -3.7142545, "nombre": "Fermín Caballero-Betanzos"}, {"lat": 40.4827683, "lon": -3.7092163, "nombre": "Colegio Valdeluz"}, {"lat": 40.4828671, "lon": -3.7092645, "nombre": "Colegio Valdeluz"}, {"lat": 40.4838031, "lon": -3.7073631, "nombre": "Metro Herrera Oria"}, {"lat": 40.4803602, "lon": -3.7164888, "nombre": "Fermín Caballero-Isla de Arosa"}, {"lat": 40.4804174, "lon": -3.716638, "nombre": "Fermín Caballero-Isla de Arosa"}, {"lat": 40.4779358, "lon": -3.7217227, "nombre": "Fermín Caballero-Isla de Tabarca"}, {"lat": 40.4780421, "lon": -3.7217679, "nombre": "Fermín Caballero-Isla de Tabarca"}, {"lat": 40.4789523, "lon": -3.7195512, "nombre": "Fermín Caballero-Islas Cíes"}, {"lat": 40.4791014, "lon": -3.7194804, "nombre": "Fermín Caballero-Islas Cíes"}, {"lat": 40.4851295, "lon": -3.7041155, "nombre": "Fermín Caballero-Patones"}, {"lat": 40.482218, "lon": -3.7117848, "nombre": "Plaza de Cieza"}, {"lat": 40.4823369, "lon": -3.711849, "nombre": "Plaza de Cieza"}, {"lat": 40.4866335, "lon": -3.7004009, "nombre": "Fermín Caballero-Sangenjo"}, {"lat": 40.4431728, "lon": -3.6465047, "nombre": "Fernández Caro-Agastia"}, {"lat": 40.4420827, "lon": -3.6474074, "nombre": "Fernández Caro-Francisco Luján"}, {"lat": 40.4770671, "lon": -3.7015838, "nombre": "Finisterre-Fernández Almagro"}, {"lat": 40.4801321, "lon": -3.7027483, "nombre": "Monforte de Lemos-Finisterre"}, {"lat": 40.4799954, "lon": -3.7028693, "nombre": "Monforte de Lemos-Finisterre"}, {"lat": 40.4609305, "lon": -3.6822314, "nombre": "Fray Bernardino Sahagún"}, {"lat": 40.4611736, "lon": -3.6822523, "nombre": "Fray Bernardino Sahagún"}, {"lat": 40.4622775, "lon": -3.6844927, "nombre": "Madre Molas"}, {"lat": 40.462615, "lon": -3.6845566, "nombre": "Madre Molas"}, {"lat": 40.4799017, "lon": -3.7397206, "nombre": "Fresnedillas"}, {"lat": 40.4800615, "lon": -3.7393998, "nombre": "Fresnedillas"}, {"lat": 40.4801289, "lon": -3.7373075, "nombre": "Gabriela Mistral-Alas Clarín"}, {"lat": 40.4809463, "lon": -3.736972, "nombre": "Gabriela Mistral-Alas Clarín"}, {"lat": 40.4741873, "lon": -3.7025566, "nombre": "Ginzo de Limia-Ferrol"}, {"lat": 40.4749715, "lon": -3.7024959, "nombre": "Metro Barrio del Pilar"}, {"lat": 40.4847204, "lon": -3.7082188, "nombre": "Metro Herrera Oria"}, {"lat": 40.4837111, "lon": -3.7067898, "nombre": "Ciudad Periodistas"}, {"lat": 40.4809202, "lon": -3.70501, "nombre": "Reales Academias-Imserso"}, {"lat": 40.4811248, "lon": -3.7046969, "nombre": "Reales Academias-Imserso"}, {"lat": 40.4799245, "lon": -3.7043039, "nombre": "Ginzo de Limia-La Vaguada"}, {"lat": 40.4799721, "lon": -3.704624, "nombre": "Ginzo de Limia-La Vaguada"}, {"lat": 40.4763448, "lon": -3.7033223, "nombre": "Metro Barrio del Pilar"}, {"lat": 40.4771244, "lon": -3.7032741, "nombre": "Metro Barrio del Pilar"}, {"lat": 40.482771, "lon": -3.7056724, "nombre": "Ginzo de Limia-Sangenjo"}, {"lat": 40.4830791, "lon": -3.705541, "nombre": "Ginzo de Limia-Sangenjo"}, {"lat": 40.4847681, "lon": -3.7077875, "nombre": "Metro Herrera Oria"}, {"lat": 40.4435521, "lon": -3.7150756, "nombre": "Avenida del Valle"}, {"lat": 40.4422215, "lon": -3.7148933, "nombre": "General Ampudia"}, {"lat": 40.4479762, "lon": -3.6467765, "nombre": "El Salvador"}, {"lat": 40.4562581, "lon": -3.6958793, "nombre": "General Cabrera"}, {"lat": 40.4462551, "lon": -3.7106384, "nombre": "Ibáñez Ibero"}, {"lat": 40.4463834, "lon": -3.710286, "nombre": "Ibáñez Ibero"}, {"lat": 40.4489338, "lon": -3.6967986, "nombre": "Basílica"}, {"lat": 40.451976, "lon": -3.6965219, "nombre": "Edgar Neville"}, {"lat": 40.447676, "lon": -3.6969654, "nombre": "Hernani"}, {"lat": 40.4525069, "lon": -3.6987352, "nombre": "General Perón-Aviador Zorita"}, {"lat": 40.454339, "lon": -3.6953448, "nombre": "Julián Besteiro-Fortunata y Jacinta"}, {"lat": 40.4559796, "lon": -3.6951848, "nombre": "Julián Besteiro-San Germán"}, {"lat": 40.4562279, "lon": -3.6928286, "nombre": "Joan Maragall-San Germán"}, {"lat": 40.4563724, "lon": -3.6925027, "nombre": "Joan Maragall-San Germán"}, {"lat": 40.4567085, "lon": -3.6983129, "nombre": "Infanta Mercedes"}, {"lat": 40.4567193, "lon": -3.6977563, "nombre": "Infanta Mercedes"}, {"lat": 40.4563089, "lon": -3.6951001, "nombre": "Orense-San Germán"}, {"lat": 40.4564628, "lon": -3.6949819, "nombre": "Orense-San Germán"}, {"lat": 40.479367, "lon": -3.6281767, "nombre": "Grama"}, {"lat": 40.4666723, "lon": -3.6551727, "nombre": "Luis Rosales"}, {"lat": 40.4668698, "lon": -3.6553007, "nombre": "Luis Rosales"}, {"lat": 40.4691172, "lon": -3.643323, "nombre": "Sandro Pertini"}, {"lat": 40.4694231, "lon": -3.6433937, "nombre": "Gran Vía Hortaleza-Sandro Pertini"}, {"lat": 40.4671106, "lon": -3.6513838, "nombre": "Gran Vía de Hortaleza-Haro"}, {"lat": 40.4673461, "lon": -3.6515124, "nombre": "Gran Vía de Hortaleza-Haro"}, {"lat": 40.4671142, "lon": -3.6535017, "nombre": "López de Hoyos-Gran Vía de Hortaleza"}, {"lat": 40.4678949, "lon": -3.6480204, "nombre": "Pinar del Rey"}, {"lat": 40.4681227, "lon": -3.6481688, "nombre": "Pinar del Rey"}, {"lat": 40.4658279, "lon": -3.6579184, "nombre": "Colonia Banesto"}, {"lat": 40.4777154, "lon": -3.6364602, "nombre": "Gregorio Sánchez Herráez"}, {"lat": 40.477748, "lon": -3.6367695, "nombre": "Gregorio Sánchez Herráez"}, {"lat": 40.4769408, "lon": -3.6370842, "nombre": "Cristalia"}, {"lat": 40.4770108, "lon": -3.6373131, "nombre": "Gregorio Sánchez Herráez"}, {"lat": 40.4467381, "lon": -3.7045717, "nombre": "Cuatro Caminos"}, {"lat": 40.4467335, "lon": -3.7029414, "nombre": "Cuatro Caminos"}, {"lat": 40.4468529, "lon": -3.7030671, "nombre": "Cuatro Caminos"}, {"lat": 40.4469506, "lon": -3.7029579, "nombre": "Cuatro Caminos"}, {"lat": 40.4471118, "lon": -3.7034614, "nombre": "Cuatro Caminos"}, {"lat": 40.4471144, "lon": -3.7043979, "nombre": "Cuatro Caminos"}, {"lat": 40.4472999, "lon": -3.7036633, "nombre": "Cuatro Caminos"}, {"lat": 40.4471464, "lon": -3.704377, "nombre": "Cuatro Caminos"}, {"lat": 40.4516465, "lon": -3.6129969, "nombre": "Glorieta de la Medusa"}, {"lat": 40.4605211, "lon": -3.6162506, "nombre": "Juan de Borbón-Ribera del Sena"}, {"lat": 40.4730749, "lon": -3.7358102, "nombre": "Glorieta Francisco Bayéu"}, {"lat": 40.4984656, "lon": -3.6865077, "nombre": "Fuente de la Carra"}, {"lat": 40.4985563, "lon": -3.6866707, "nombre": "Fuente de la Carra"}, {"lat": 40.5120661, "lon": -3.6708517, "nombre": "Las Tablas"}, {"lat": 40.4695586, "lon": -3.6377699, "nombre": "Mar de Cristal"}, {"lat": 40.4754837, "lon": -3.7217452, "nombre": "Glorieta Salvador Maella"}, {"lat": 40.4761444, "lon": -3.7212595, "nombre": "Glorieta Salvador Maella"}, {"lat": 40.5093725, "lon": -3.6682805, "nombre": "Glorieta Monte del Gozo"}, {"lat": 40.4717733, "lon": -3.7121366, "nombre": "Piedrafita del Cebrero"}, {"lat": 40.4717834, "lon": -3.7126294, "nombre": "Piedrafita del Cebrero"}, {"lat": 40.488137, "lon": -3.7192938, "nombre": "Gta. Pradera de los Corralillos"}, {"lat": 40.4885568, "lon": -3.7186827, "nombre": "Gta. Pradera de los Corralillos"}, {"lat": 40.4899818, "lon": -3.716156, "nombre": "Metro Mirasierra"}, {"lat": 40.4456887, "lon": -3.7148274, "nombre": "Gta. Pte. García Moreno"}, {"lat": 40.4473429, "lon": -3.6263801, "nombre": "Los Molinos"}, {"lat": 40.4473953, "lon": -3.6256432, "nombre": "Gta. Ricardo Velázquez Bosco"}, {"lat": 40.4478764, "lon": -3.6264226, "nombre": "Gta. Ricardo Velázquez Bosco"}, {"lat": 40.4536957, "lon": -3.615086, "nombre": "Conde de las Posadas"}, {"lat": 40.4519404, "lon": -3.6150173, "nombre": "Guadalajara"}, {"lat": 40.4481494, "lon": -3.6143833, "nombre": "Gutiérrez Canales"}, {"lat": 40.4483395, "lon": -3.6144496, "nombre": "Gutiérrez Canales"}, {"lat": 40.4415078, "lon": -3.7127417, "nombre": "Melquíades Álvarez"}, {"lat": 40.4431707, "lon": -3.7126459, "nombre": "Guzmán el Bueno-San Francisco de Sales"}, {"lat": 40.4458208, "lon": -3.7124067, "nombre": "Reina Victoria"}, {"lat": 40.4817035, "lon": -3.6349921, "nombre": "San Andrés de Rabanedo"}, {"lat": 40.4467774, "lon": -3.6516996, "nombre": "Hernández de Tejada"}, {"lat": 40.4798388, "lon": -3.688799, "nombre": "Hospital La Paz-Maternidad"}, {"lat": 40.4806056, "lon": -3.6890224, "nombre": "Hospital La Paz"}, {"lat": 40.4795981, "lon": -3.6862939, "nombre": "Hospital La Paz"}, {"lat": 40.4797967, "lon": -3.6858237, "nombre": "Castellana-Hospital La Paz"}, {"lat": 40.4882736, "lon": -3.6957333, "nombre": "Hospital Ramón y Cajal-Consultas"}, {"lat": 40.48777, "lon": -3.6936965, "nombre": "Hospital Ramón y Cajal"}, {"lat": 40.44109, "lon": -3.6157549, "nombre": "Avenida de Canillejas-Néctar"}, {"lat": 40.440997, "lon": -3.6156642, "nombre": "Avenida de Canillejas-Néctar"}, {"lat": 40.4488376, "lon": -3.6097356, "nombre": "Canillejas"}, {"lat": 40.4490376, "lon": -3.6097107, "nombre": "Canillejas"}, {"lat": 40.4491664, "lon": -3.6098706, "nombre": "Canillejas"}, {"lat": 40.4665932, "lon": -3.6892934, "nombre": "Plaza Castilla"}, {"lat": 40.4671556, "lon": -3.6889074, "nombre": "Plaza Castilla"}, {"lat": 40.4673288, "lon": -3.6888599, "nombre": "Plaza Castilla"}, {"lat": 40.4675097, "lon": -3.6888103, "nombre": "Plaza Castilla"}, {"lat": 40.46768, "lon": -3.6887636, "nombre": "Plaza Castilla"}, {"lat": 40.4678533, "lon": -3.6887161, "nombre": "Plaza Castilla"}, {"lat": 40.4680158, "lon": -3.6886715, "nombre": "Plaza Castilla"}, {"lat": 40.4676445, "lon": -3.6890391, "nombre": "Plaza Castilla"}, {"lat": 40.467931, "lon": -3.6889605, "nombre": "Plaza Castilla"}, {"lat": 40.4681638, "lon": -3.688631, "nombre": "Plaza Castilla"}, {"lat": 40.4683039, "lon": -3.6885925, "nombre": "Plaza Castilla"}, {"lat": 40.4400208, "lon": -3.7175685, "nombre": "Hospital Clínico"}, {"lat": 40.440666, "lon": -3.7181253, "nombre": "Hospital Clínico"}, {"lat": 40.4429086, "lon": -3.7193274, "nombre": "Isaac Peral-Julián Romea"}, {"lat": 40.4430491, "lon": -3.7191981, "nombre": "Isaac Peral-Julián Romea"}, {"lat": 40.4841316, "lon": -3.6855176, "nombre": "San Modesto-Marcos Orueta"}, {"lat": 40.4503591, "lon": -3.6136545, "nombre": "Isis"}, {"lat": 40.4816745, "lon": -3.717023, "nombre": "Isla de Arosa"}, {"lat": 40.4818241, "lon": -3.7169744, "nombre": "Isla de Arosa"}, {"lat": 40.4641753, "lon": -3.7228017, "nombre": "Isla de Oza - Aurora"}, {"lat": 40.4642165, "lon": -3.7226934, "nombre": "Isla de Oza-Aurora"}, {"lat": 40.4649752, "lon": -3.7267119, "nombre": "Isla de Oza-San Martín de Porres"}, {"lat": 40.474212, "lon": -3.7212598, "nombre": "César Manrique-Chantada"}, {"lat": 40.4730742, "lon": -3.7221451, "nombre": "Joaquín Lorenzo-Isla Malaita"}, {"lat": 40.4772315, "lon": -3.7289203, "nombre": "Islas Aleutianas-Herrera Oria"}, {"lat": 40.4746956, "lon": -3.729452, "nombre": "Barrio Peñagrande"}, {"lat": 40.4747646, "lon": -3.7290908, "nombre": "Islas Aleutianas - Joaquín Lorenzo"}, {"lat": 40.476506, "lon": -3.7291737, "nombre": "Islas Aleutianas-Herrera Oria"}, {"lat": 40.453731, "lon": -3.6028838, "nombre": "Jardines de Aranjuez"}, {"lat": 40.4821719, "lon": -3.6623862, "nombre": "Jazmín-Golfo de Salónica"}, {"lat": 40.4823454, "lon": -3.6625136, "nombre": "Jazmín-Golfo de Salónica"}, {"lat": 40.4408917, "lon": -3.6812525, "nombre": "Glorieta López de Hoyos"}, {"lat": 40.4411712, "lon": -3.6811292, "nombre": "Glorieta López de Hoyos"}, {"lat": 40.4460116, "lon": -3.690122, "nombre": "Nuevos Ministerios-Joaquín Costa"}, {"lat": 40.4463058, "lon": -3.6900056, "nombre": "Nuevos Ministerios-Joaquín Costa"}, {"lat": 40.4442979, "lon": -3.6848511, "nombre": "República Argentina"}, {"lat": 40.4446011, "lon": -3.6846084, "nombre": "República Argentina"}, {"lat": 40.4455464, "lon": -3.6862334, "nombre": "República Argentina"}, {"lat": 40.4460783, "lon": -3.6861799, "nombre": "República Argentina"}, {"lat": 40.4429108, "lon": -3.6829485, "nombre": "Joaquín Costa - Velázquez"}, {"lat": 40.4427556, "lon": -3.6831982, "nombre": "Joaquín Costa-Velázquez"}, {"lat": 40.4743657, "lon": -3.7247722, "nombre": "Joaquín Lorenzo-Avenida Ilustración"}, {"lat": 40.4728512, "lon": -3.7227615, "nombre": "Joaquín Lorenzo-Isla Malaita"}, {"lat": 40.4730797, "lon": -3.7229664, "nombre": "Joaquín Lorenzo-Isla Malaita"}, {"lat": 40.4411261, "lon": -3.6416945, "nombre": "Arturo Soria-José del Hierro"}, {"lat": 40.4400808, "lon": -3.6441729, "nombre": "José del Hierro-Mandarina"}, {"lat": 40.4401612, "lon": -3.6442923, "nombre": "José del Hierro-Mandarina"}, {"lat": 40.4413364, "lon": -3.6414756, "nombre": "Arturo Soria-José del Hierro"}, {"lat": 40.4642381, "lon": -3.7250099, "nombre": "José Fentanes-Isla de Oza"}, {"lat": 40.461171, "lon": -3.7249287, "nombre": "José Fentanes-Mártires Maristas"}, {"lat": 40.4547802, "lon": -3.6583887, "nombre": "José Silva - Agastia"}, {"lat": 40.454853, "lon": -3.6585333, "nombre": "José Silva-Agastia"}, {"lat": 40.447741, "lon": -3.6493693, "nombre": "Arturo Soria-Josefa Valcárcel"}, {"lat": 40.4484716, "lon": -3.6476995, "nombre": "Josefa Valcárcel-General Aranaz"}, {"lat": 40.4494583, "lon": -3.6153404, "nombre": "Josefa Valcárcel-Gutiérrez Canales"}, {"lat": 40.448736, "lon": -3.6405581, "nombre": "Josefa Valcárcel-INE"}, {"lat": 40.4483005, "lon": -3.6378538, "nombre": "Josefa Valcárcel-Juan Rizi"}, {"lat": 40.4535021, "lon": -3.702648, "nombre": "Juan de Olías"}, {"lat": 40.451883, "lon": -3.7299084, "nombre": "Paraninfo-Derecho"}, {"lat": 40.4521076, "lon": -3.7349804, "nombre": "Paraninfo"}, {"lat": 40.4471583, "lon": -3.6356525, "nombre": "Diario ABC"}, {"lat": 40.4472756, "lon": -3.635821, "nombre": "Diario ABC"}, {"lat": 40.4477573, "lon": -3.6325875, "nombre": "Juan Ignacio Luca de Tena-Juana I"}, {"lat": 40.44753, "lon": -3.6268123, "nombre": "Los Molinos"}, {"lat": 40.4477233, "lon": -3.6272441, "nombre": "Los Molinos"}, {"lat": 40.4478295, "lon": -3.6300778, "nombre": "Juan Ignacio Luca de Tena-Botánico"}, {"lat": 40.4479917, "lon": -3.6300735, "nombre": "Juan Ignacio Luca de Tena-Botánico"}, {"lat": 40.447747, "lon": -3.6319948, "nombre": "Juan Ignacio Luca de Tena-Juana I"}, {"lat": 40.4716654, "lon": -3.7279182, "nombre": "Doctor Castroviejo-López Ibor"}, {"lat": 40.4722946, "lon": -3.7282037, "nombre": "Doctor Castroviejo-López Ibor"}, {"lat": 40.4697594, "lon": -3.7260736, "nombre": "López Ibor-Isla Cristina"}, {"lat": 40.469576, "lon": -3.7261065, "nombre": "López Ibor-Isla Cristina"}, {"lat": 40.4448461, "lon": -3.6466883, "nombre": "Juan Pérez de Zúñiga-Arturo Soria"}, {"lat": 40.4406228, "lon": -3.6495603, "nombre": "Juan Pérez de Zúñiga-Torrelaguna"}, {"lat": 40.4425701, "lon": -3.6484798, "nombre": "Juan Pérez de Zúñiga"}, {"lat": 40.4413435, "lon": -3.712379, "nombre": "Melquíades Álvarez"}, {"lat": 40.4424934, "lon": -3.7099715, "nombre": "Estadio Vallehermoso"}, {"lat": 40.4469719, "lon": -3.7178377, "nombre": "Vicente Aleixandre"}, {"lat": 40.446182, "lon": -3.7188284, "nombre": "Vicente Aleixandre"}, {"lat": 40.4826817, "lon": -3.6937753, "nombre": "Julio Palacios"}, {"lat": 40.4826456, "lon": -3.6939269, "nombre": "Julio Palacios"}, {"lat": 40.4759869, "lon": -3.7154226, "nombre": "Barrio del Pilar"}, {"lat": 40.475232, "lon": -3.7183017, "nombre": "La Bañeza-Cándido Mateos"}, {"lat": 40.4754515, "lon": -3.7182246, "nombre": "La Bañeza-Cándido Mateos"}, {"lat": 40.4755935, "lon": -3.7163898, "nombre": "Metro Peñagrande"}, {"lat": 40.4757582, "lon": -3.7164543, "nombre": "Metro Peñagrande"}, {"lat": 40.4762752, "lon": -3.713229, "nombre": "La Bañeza-Ponferrada"}, {"lat": 40.4763152, "lon": -3.7136859, "nombre": "La Bañeza-Ponferrada"}, {"lat": 40.4837917, "lon": -3.7142057, "nombre": "Herrera Oria-Ventisquero de la Condesa"}, {"lat": 40.4837095, "lon": -3.7143954, "nombre": "Herrera Oria-Ventisquero de la Condesa"}, {"lat": 40.4891353, "lon": -3.7140078, "nombre": "Ruber Internacional"}, {"lat": 40.4950136, "lon": -3.7074112, "nombre": "La Masó-Marbella"}, {"lat": 40.4951839, "lon": -3.7074099, "nombre": "La Masó-Marbella"}, {"lat": 40.4934902, "lon": -3.7104869, "nombre": "La Masó-Moralzarzal"}, {"lat": 40.4945818, "lon": -3.7092582, "nombre": "La Masó-Nuria"}, {"lat": 40.4946881, "lon": -3.7094924, "nombre": "La Masó-Nuria"}, {"lat": 40.4867008, "lon": -3.7143143, "nombre": "La Masó-Saloú"}, {"lat": 40.4867334, "lon": -3.7141579, "nombre": "La Masó-Saloú"}, {"lat": 40.4894986, "lon": -3.7142488, "nombre": "Ruber Internacional"}, {"lat": 40.4790535, "lon": -3.7065996, "nombre": "Barrio del Pilar"}, {"lat": 40.4817646, "lon": -3.7327258, "nombre": "Barrio Peñagrande"}, {"lat": 40.4854727, "lon": -3.6839664, "nombre": "Llano Castellano-Francisco Sancha"}, {"lat": 40.4864346, "lon": -3.6845885, "nombre": "Llano Castellano-Francisco Sancha"}, {"lat": 40.4905289, "lon": -3.6861599, "nombre": "Llano Castellano-Herrera Oria"}, {"lat": 40.4905, "lon": -3.6858572, "nombre": "Llano Castellano-Herrera Oria"}, {"lat": 40.4871386, "lon": -3.6846051, "nombre": "Llano Castellano-Manuel Tovar"}, {"lat": 40.489205, "lon": -3.6856117, "nombre": "Llano Castellano-Valdegovia"}, {"lat": 40.4894158, "lon": -3.6854878, "nombre": "Llano Castellano-Valdegovia"}, {"lat": 40.4573283, "lon": -3.7022645, "nombre": "Bravo Murillo-Lope de Haro"}, {"lat": 40.4436998, "lon": -3.6356757, "nombre": "López de Aranda-Tampico"}, {"lat": 40.4438253, "lon": -3.635783, "nombre": "López de Aranda-Tampico"}, {"lat": 40.4425625, "lon": -3.6385849, "nombre": "López de Aranda"}, {"lat": 40.4426602, "lon": -3.6379535, "nombre": "López de Aranda"}, {"lat": 40.4701439, "lon": -3.6514269, "nombre": "López de Hoyos-Ángel Luis Herrán"}, {"lat": 40.4701815, "lon": -3.6511541, "nombre": "López de Hoyos-Ángel Luis Herrán"}, {"lat": 40.4586155, "lon": -3.6602175, "nombre": "Arturo Soria"}, {"lat": 40.4597059, "lon": -3.6595786, "nombre": "López de Hoyos-Arturo Soria"}, {"lat": 40.4455088, "lon": -3.6719162, "nombre": "López de Hoyos-Cardenal Silíceo"}, {"lat": 40.445841, "lon": -3.6716121, "nombre": "López de Hoyos-Cardenal Silíceo"}, {"lat": 40.4567843, "lon": -3.6608327, "nombre": "López de Hoyos-Clínica San Juan de Dios"}, {"lat": 40.4483989, "lon": -3.667698, "nombre": "Metro Alfonso XIII"}, {"lat": 40.4487736, "lon": -3.6671848, "nombre": "Metro Alfonso XIII"}, {"lat": 40.4636242, "lon": -3.6573068, "nombre": "Junta Municipal de Hortaleza"}, {"lat": 40.4446204, "lon": -3.6736319, "nombre": "Prosperidad"}, {"lat": 40.4400912, "lon": -3.6809428, "nombre": "Glorieta López de Hoyos"}, {"lat": 40.440206, "lon": -3.6813331, "nombre": "Glorieta López de Hoyos"}, {"lat": 40.4429194, "lon": -3.6756659, "nombre": "López de Hoyos-Cartagena"}, {"lat": 40.4430018, "lon": -3.6757452, "nombre": "López de Hoyos-Cartagena"}, {"lat": 40.4675453, "lon": -3.6537355, "nombre": "López de Hoyos-Gran Vía de Hortaleza"}, {"lat": 40.4678638, "lon": -3.6531842, "nombre": "López de Hoyos-Gran Vía de Hortaleza"}, {"lat": 40.4661617, "lon": -3.6546654, "nombre": "Luis Rosales"}, {"lat": 40.4663321, "lon": -3.6547972, "nombre": "Luis Rosales"}, {"lat": 40.4616553, "lon": -3.6592148, "nombre": "López de Hoyos - Navarro Amandi"}, {"lat": 40.4618687, "lon": -3.6586679, "nombre": "López de Hoyos-Navarro Amandi"}, {"lat": 40.450165, "lon": -3.6651459, "nombre": "López de Hoyos-Padre Claret"}, {"lat": 40.4469767, "lon": -3.6697594, "nombre": "López de Hoyos-Pantoja"}, {"lat": 40.4473383, "lon": -3.6694679, "nombre": "López de Hoyos-Pantoja"}, {"lat": 40.4566909, "lon": -3.6610959, "nombre": "López de Hoyos-Clínica San Juan de Dios"}, {"lat": 40.4416382, "lon": -3.678314, "nombre": "López de Hoyos-Príncipe de Vergara"}, {"lat": 40.4415437, "lon": -3.6781568, "nombre": "López de Hoyos-Príncipe de Vergara"}, {"lat": 40.4441583, "lon": -3.6740864, "nombre": "Prosperidad"}, {"lat": 40.4720194, "lon": -3.6495439, "nombre": "Santos de la Humosa"}, {"lat": 40.4721495, "lon": -3.6496383, "nombre": "Santos de la Humosa"}, {"lat": 40.4686738, "lon": -3.6379667, "nombre": "Arequipa-Emigrantes"}, {"lat": 40.4655322, "lon": -3.636162, "nombre": "Emigrantes-Carretera de Canillas"}, {"lat": 40.4656822, "lon": -3.6359936, "nombre": "Emigrantes-Carretera de Canillas"}, {"lat": 40.4672595, "lon": -3.6371509, "nombre": "Emigrantes-Tribaldos"}, {"lat": 40.4673733, "lon": -3.6369186, "nombre": "Emigrantes-Tribaldos"}, {"lat": 40.4401081, "lon": -3.6117061, "nombre": "Lucano-Canal del Bósforo"}, {"lat": 40.4438215, "lon": -3.6519937, "nombre": "Madre Antonia París"}, {"lat": 40.473479, "lon": -3.6369544, "nombre": "Manizales"}, {"lat": 40.4743152, "lon": -3.6366863, "nombre": "Manizales"}, {"lat": 40.4701331, "lon": -3.6388213, "nombre": "Mar de Cristal"}, {"lat": 40.47016, "lon": -3.6386132, "nombre": "Mar Adriático"}, {"lat": 40.4743973, "lon": -3.6415448, "nombre": "Mar Amarillo"}, {"lat": 40.4735852, "lon": -3.6480082, "nombre": "Mar Caspio"}, {"lat": 40.4731809, "lon": -3.6431966, "nombre": "Mar Caspio-Liberación"}, {"lat": 40.4734915, "lon": -3.6448641, "nombre": "Mar Caspio-Mar Negro"}, {"lat": 40.473447, "lon": -3.6479975, "nombre": "Mar Caspio"}, {"lat": 40.472836, "lon": -3.6404093, "nombre": "Mar de Bering - Metro San Lorenzo"}, {"lat": 40.4696213, "lon": -3.6388021, "nombre": "Mar de Cristal"}, {"lat": 40.4696837, "lon": -3.6378408, "nombre": "Mar de Cristal"}, {"lat": 40.476711, "lon": -3.6483149, "nombre": "Mar de las Antillas-Abarzuza"}, {"lat": 40.4768084, "lon": -3.6486084, "nombre": "Mar de las Antillas-Abarzuza"}, {"lat": 40.4779131, "lon": -3.6492231, "nombre": "Hortaleza"}, {"lat": 40.4741205, "lon": -3.6452301, "nombre": "Mar de las Antillas-Mar Negro"}, {"lat": 40.4743542, "lon": -3.6454562, "nombre": "Mar de las Antillas-Mar Negro"}, {"lat": 40.4754851, "lon": -3.6465961, "nombre": "Mar de las Antillas-Santa Susana"}, {"lat": 40.4759948, "lon": -3.6475058, "nombre": "Mar de las Antillas-Santa Susana"}, {"lat": 40.4739112, "lon": -3.6447293, "nombre": "Mar de las Antillas-Mar Negro"}, {"lat": 40.4844741, "lon": -3.6851035, "nombre": "San Modesto-Marcos Orueta"}, {"lat": 40.4947679, "lon": -3.66472, "nombre": "Maria de Portugal - Fco. Pi y Margall"}, {"lat": 40.4949304, "lon": -3.6649702, "nombre": "Maria de Portugal - Fco. Pi y Margall"}, {"lat": 40.4968397, "lon": -3.6637545, "nombre": "Maria Portugal - Leonor Austria"}, {"lat": 40.4972727, "lon": -3.6628559, "nombre": "Maria Portugal - Leonor Austria"}, {"lat": 40.4987781, "lon": -3.6616664, "nombre": "Maria Portugal - Margarita Parma"}, {"lat": 40.4990387, "lon": -3.6607545, "nombre": "Maria Portugal - Margarita Parma"}, {"lat": 40.4606602, "lon": -3.6987573, "nombre": "Metro Tetuán"}, {"lat": 40.4608499, "lon": -3.6987615, "nombre": "Metro Tetuán"}, {"lat": 40.4623797, "lon": -3.7015946, "nombre": "Marqués de Viana-Gladiolo"}, {"lat": 40.4635224, "lon": -3.7037549, "nombre": "Marqués de Viana-Genciana"}, {"lat": 40.4622152, "lon": -3.7016743, "nombre": "Marqués de Viana-Gladiolo"}, {"lat": 40.4632434, "lon": -3.7035904, "nombre": "Marqués de Viana-Genciana"}, {"lat": 40.4639527, "lon": -3.7054801, "nombre": "Marqués de Viana"}, {"lat": 40.4640299, "lon": -3.7057489, "nombre": "Marqués de Viana"}, {"lat": 40.4476909, "lon": -3.6223879, "nombre": "Marquesado de Santa Marta"}, {"lat": 40.4607787, "lon": -3.7265486, "nombre": "Navalperal-Madrigal"}, {"lat": 40.467385, "lon": -3.6815401, "nombre": "Avenida del Recuerdo"}, {"lat": 40.4675449, "lon": -3.6811873, "nombre": "Avenida del Recuerdo"}, {"lat": 40.4668593, "lon": -3.6851297, "nombre": "Mateo Inurria"}, {"lat": 40.4668792, "lon": -3.6855866, "nombre": "Mateo Inurria"}, {"lat": 40.4661479, "lon": -3.6881296, "nombre": "Plaza Castilla"}, {"lat": 40.4663358, "lon": -3.6882718, "nombre": "Plaza Castilla"}, {"lat": 40.4665114, "lon": -3.6876025, "nombre": "Plaza Castilla"}, {"lat": 40.4674733, "lon": -3.6784512, "nombre": "Duque de Pastrana"}, {"lat": 40.4691098, "lon": -3.6869503, "nombre": "Mauricio Legendre-Agustín de Foxá"}, {"lat": 40.4741664, "lon": -3.6849985, "nombre": "Mauricio Legendre-Estación de Chamartín"}, {"lat": 40.4714018, "lon": -3.6863311, "nombre": "Mauricio Legendre-José Vasconcelos"}, {"lat": 40.4766931, "lon": -3.6842968, "nombre": "Mauricio Legendre-Manuel Caldeiro"}, {"lat": 40.4798703, "lon": -3.6836402, "nombre": "Mauricio Legendre-Cocheras EMT"}, {"lat": 40.4751745, "lon": -3.7105598, "nombre": "Fernández Almagro-Betanzos"}, {"lat": 40.4755591, "lon": -3.710291, "nombre": "Fernández Almagro-Betanzos"}, {"lat": 40.4760636, "lon": -3.7073378, "nombre": "Fernández Almagro-Ferrol"}, {"lat": 40.4761555, "lon": -3.7074828, "nombre": "Fernández Almagro-Ferrol"}, {"lat": 40.4768819, "lon": -3.7038994, "nombre": "Metro Barrio del Pilar"}, {"lat": 40.4442353, "lon": -3.6958526, "nombre": "Modesto Lafuente-María de Guzmán"}, {"lat": 40.4414514, "lon": -3.69612, "nombre": "Modesto Lafuente-Ríos Rosas"}, {"lat": 40.4834278, "lon": -3.6360012, "nombre": "Mombuey"}, {"lat": 40.5043462, "lon": -3.699599, "nombre": "Monasterio Escorial-Avenida Montecarmelo"}, {"lat": 40.5043009, "lon": -3.7021732, "nombre": "Monasterio Escorial-Montesclaros"}, {"lat": 40.5055401, "lon": -3.6970876, "nombre": "Metro Montecarmelo"}, {"lat": 40.5045421, "lon": -3.7064686, "nombre": "Monasterio Escorial-Monasterio Huelgas"}, {"lat": 40.5072746, "lon": -3.6955524, "nombre": "Monasterio Escorial-Monasterio Liébana"}, {"lat": 40.5095337, "lon": -3.6936466, "nombre": "Monasterio Escorial-Monasterio Sobrado"}, {"lat": 40.501605, "lon": -3.7071582, "nombre": "Monasterio Huelgas-Monasterio Paular"}, {"lat": 40.5016607, "lon": -3.7069174, "nombre": "Monasterio Huelgas-Monasterio Paular"}, {"lat": 40.5032455, "lon": -3.7070381, "nombre": "Monasterio Huelgas-Monasterio Silos"}, {"lat": 40.5034084, "lon": -3.6987651, "nombre": "Monasterio Silos-Avenida Montecarmelo"}, {"lat": 40.5104841, "lon": -3.6919775, "nombre": "Montecarmelo"}, {"lat": 40.5047356, "lon": -3.696044, "nombre": "Metro Montecarmelo"}, {"lat": 40.5034161, "lon": -3.7063924, "nombre": "Monasterio Silos-Monasterio Huelgas"}, {"lat": 40.506648, "lon": -3.6943958, "nombre": "Monasterio Silos-Monasterio Liébana"}, {"lat": 40.5032063, "lon": -3.7023854, "nombre": "Monasterio Silos-Monasterio Montesclaros"}, {"lat": 40.5088787, "lon": -3.6924607, "nombre": "Monasterio Silos-Monasterio Sobrado"}, {"lat": 40.4777859, "lon": -3.7114898, "nombre": "Parque de La Vaguada"}, {"lat": 40.4781352, "lon": -3.710859, "nombre": "Parque de La Vaguada"}, {"lat": 40.479467, "lon": -3.7032295, "nombre": "Monforte de Lemos-Finisterre"}, {"lat": 40.4796094, "lon": -3.7036101, "nombre": "Monforte de Lemos-Finisterre"}, {"lat": 40.4783661, "lon": -3.708701, "nombre": "Junta Municipal Fuencarral"}, {"lat": 40.4785694, "lon": -3.7088701, "nombre": "Junta Municipal Fuencarral"}, {"lat": 40.4790362, "lon": -3.7067044, "nombre": "La Vaguada"}, {"lat": 40.4791647, "lon": -3.7047958, "nombre": "Monforte de Lemos-La Vaguada"}, {"lat": 40.4798664, "lon": -3.7005025, "nombre": "Monforte de Lemos-Parque Bomberos"}, {"lat": 40.4800857, "lon": -3.7005877, "nombre": "Monforte de Lemos-Parque Bomberos"}, {"lat": 40.4791499, "lon": -3.6930694, "nombre": "Monforte de Lemos-Parque Norte"}, {"lat": 40.4792489, "lon": -3.6915872, "nombre": "Monforte de Lemos-Parque Norte"}, {"lat": 40.4794697, "lon": -3.6940016, "nombre": "Monforte de Lemos-Polideportivo"}, {"lat": 40.4795318, "lon": -3.696995, "nombre": "Monforte de Lemos-Puentecesures"}, {"lat": 40.4797969, "lon": -3.6970936, "nombre": "Monforte de Lemos-Puentecesures"}, {"lat": 40.4752901, "lon": -3.6884431, "nombre": "Cuatro Torres"}, {"lat": 40.4754351, "lon": -3.6884056, "nombre": "Cuatro Torres"}, {"lat": 40.4770864, "lon": -3.7146335, "nombre": "Monforte de Lemos-Ganapanes"}, {"lat": 40.4772031, "lon": -3.7154331, "nombre": "Monforte de Lemos-Ganapanes"}, {"lat": 40.4627736, "lon": -3.6595532, "nombre": "Montearagón"}, {"lat": 40.4870432, "lon": -3.7038858, "nombre": "Alfredo Marqueríe"}, {"lat": 40.4939433, "lon": -3.7129934, "nombre": "Mirasierra"}, {"lat": 40.4932302, "lon": -3.711024, "nombre": "La Masó-Moralzarzal"}, {"lat": 40.4570317, "lon": -3.6473357, "nombre": "Moscatelar-Milán"}, {"lat": 40.4572272, "lon": -3.6468143, "nombre": "Moscatelar-Milán"}, {"lat": 40.4570657, "lon": -3.6498708, "nombre": "Moscatelar-Parma"}, {"lat": 40.4572012, "lon": -3.6492515, "nombre": "Moscatelar-Parma"}, {"lat": 40.464706, "lon": -3.6343409, "nombre": "Motilla del Palancar"}, {"lat": 40.4647968, "lon": -3.6340995, "nombre": "Motilla del Palancar"}, {"lat": 40.4647208, "lon": -3.6318276, "nombre": "Mota del Cuervo"}, {"lat": 40.4648013, "lon": -3.6319871, "nombre": "Mota del Cuervo"}, {"lat": 40.4431916, "lon": -3.6392246, "nombre": "Marqués de Hoyos"}, {"lat": 40.4467646, "lon": -3.6451383, "nombre": "Marqués de Portugalete"}, {"lat": 40.4823173, "lon": -3.6331724, "nombre": "Murias de Paredes"}, {"lat": 40.4839516, "lon": -3.6341435, "nombre": "Moreruela"}, {"lat": 40.484419, "lon": -3.7, "nombre": "Narcís Monturiol"}, {"lat": 40.484948, "lon": -3.7002662, "nombre": "Narcís Monturiol"}, {"lat": 40.4605938, "lon": -3.7271837, "nombre": "Navalperal-Madrigal"}, {"lat": 40.4412073, "lon": -3.6150495, "nombre": "Avenida de Canillejas-Néctar"}, {"lat": 40.441238, "lon": -3.6152332, "nombre": "Avenida de Canillejas-Néctar"}, {"lat": 40.4435531, "lon": -3.6099431, "nombre": "Néctar-Esfinge"}, {"lat": 40.4420192, "lon": -3.6123384, "nombre": "San Mariano-Néctar"}, {"lat": 40.4860309, "lon": -3.6467257, "nombre": "Sanchinarro"}, {"lat": 40.4981565, "lon": -3.6555778, "nombre": "Niceto Alcalá Zamora - Isabel Valois"}, {"lat": 40.4984194, "lon": -3.6552949, "nombre": "Niceto Alcalá Zamora - Isabel Valois"}, {"lat": 40.4993757, "lon": -3.6574683, "nombre": "Niceto Alcalá Zamora - María Portugal"}, {"lat": 40.4831603, "lon": -3.6485043, "nombre": "Alcalá Zamora-Antonio Saura"}, {"lat": 40.4837202, "lon": -3.6484625, "nombre": "Alcalá Zamora-Antonio Saura"}, {"lat": 40.5001447, "lon": -3.6580291, "nombre": "Alcalá Zamora-María Tudor"}, {"lat": 40.5043266, "lon": -3.6856309, "nombre": "Nuestra Señora Valverde-Alonso Quijano"}, {"lat": 40.5051427, "lon": -3.6853533, "nombre": "Nuestra Señora Valverde-Alonso Quijano"}, {"lat": 40.4952155, "lon": -3.687624, "nombre": "Nuestra Señora de Valverde-Sumatra"}, {"lat": 40.495257, "lon": -3.6877349, "nombre": "Nuestra Señora de Valverde-Sumatra"}, {"lat": 40.4921142, "lon": -3.6866943, "nombre": "Nuestra Señora de Valverde-Islas Jarvi"}, {"lat": 40.4925932, "lon": -3.6867013, "nombre": "Nuestra Señora de Valverde-Islas Jarvi"}, {"lat": 40.4965561, "lon": -3.6874467, "nombre": "Nuestra Señora Valverde-Manuel Villarta"}, {"lat": 40.4972674, "lon": -3.6869566, "nombre": "Nuestra Señora Valverde-Manuel Villarta"}, {"lat": 40.4647638, "lon": -3.7237781, "nombre": "Nueva Zelanda-Isla de Oza"}, {"lat": 40.4673145, "lon": -3.724319, "nombre": "Nueva Zelanda-Ruperto Andrés"}, {"lat": 40.4673422, "lon": -3.7242131, "nombre": "Nueva Zelanda-Ruperto Andrés"}, {"lat": 40.4941645, "lon": -3.7092396, "nombre": "La Masó-Nuria"}, {"lat": 40.4942552, "lon": -3.7091497, "nombre": "La Masó-Nuria"}, {"lat": 40.4914114, "lon": -3.7049559, "nombre": "Nuria-Peña Sirio"}, {"lat": 40.4918007, "lon": -3.7052397, "nombre": "Nuria-Peña Sirio"}, {"lat": 40.4579736, "lon": -3.7110094, "nombre": "Metro Francos Rodríguez"}, {"lat": 40.4580102, "lon": -3.7112631, "nombre": "Metro Francos Rodríguez"}, {"lat": 40.4631515, "lon": -3.7074143, "nombre": "Ofelia Nieto-Paseo de la Dirección"}, {"lat": 40.4632056, "lon": -3.7075858, "nombre": "Ofelia Nieto-Paseo de la Dirección"}, {"lat": 40.461471, "lon": -3.7086986, "nombre": "Ofelia Nieto"}, {"lat": 40.4614904, "lon": -3.7089941, "nombre": "Ofelia Nieto"}, {"lat": 40.4497619, "lon": -3.6954156, "nombre": "Basílica"}, {"lat": 40.4520304, "lon": -3.695093, "nombre": "Orense-General Perón"}, {"lat": 40.4561127, "lon": -3.6947752, "nombre": "Orense-San Germán"}, {"lat": 40.4535126, "lon": -3.695031, "nombre": "Palacio de Congresos"}, {"lat": 40.4469587, "lon": -3.6956069, "nombre": "Nuevos Ministerios"}, {"lat": 40.4596549, "lon": -3.6943914, "nombre": "Orense-Sor Ángela de la Cruz"}, {"lat": 40.4610239, "lon": -3.7747486, "nombre": "Osa Mayor-Bellatrix"}, {"lat": 40.4888278, "lon": -3.6697339, "nombre": "Avenida de Manoteras-Oña"}, {"lat": 40.4893578, "lon": -3.6645208, "nombre": "Oña-Infanta María"}, {"lat": 40.489489, "lon": -3.6620734, "nombre": "Oña-Centro Deportivo"}, {"lat": 40.4891149, "lon": -3.6675959, "nombre": "Oña-Hospital"}, {"lat": 40.4522043, "lon": -3.665358, "nombre": "Padre Claret-Ramón y Cajal"}, {"lat": 40.4593726, "lon": -3.6853767, "nombre": "Alberto Alcocer-Padre Damián"}, {"lat": 40.459451, "lon": -3.6856317, "nombre": "Alberto Alcocer-Padre Damián"}, {"lat": 40.4573793, "lon": -3.6855635, "nombre": "Padre Damián-Lázaro Galdiano"}, {"lat": 40.4575174, "lon": -3.6858255, "nombre": "Padre Damián-Lázaro Galdiano"}, {"lat": 40.4617273, "lon": -3.6851309, "nombre": "Padre Damián-Pedro Muguruza"}, {"lat": 40.4618128, "lon": -3.6853879, "nombre": "Padre Damián-Pedro Muguruza"}, {"lat": 40.4547072, "lon": -3.6872328, "nombre": "Padre Damián-Rafael Salgado"}, {"lat": 40.4547223, "lon": -3.6869753, "nombre": "Padre Damián-Rafael Salgado"}, {"lat": 40.4589288, "lon": -3.6716925, "nombre": "Costa Rica"}, {"lat": 40.4480933, "lon": -3.7287008, "nombre": "Avenida Complutense-Jardín Botánico"}, {"lat": 40.4544997, "lon": -3.7292527, "nombre": "Paraninfo-Ciemat"}, {"lat": 40.4547892, "lon": -3.7290553, "nombre": "Paraninfo-Ciemat"}, {"lat": 40.4509756, "lon": -3.7294675, "nombre": "Paraninfo-Derecho"}, {"lat": 40.4493198, "lon": -3.7292038, "nombre": "Paraninfo-Filosofía"}, {"lat": 40.4527303, "lon": -3.7296463, "nombre": "Paraninfo-Informática"}, {"lat": 40.450151, "lon": -3.7273981, "nombre": "Paraninfo-Matemáticas"}, {"lat": 40.4520948, "lon": -3.7277337, "nombre": "Paraninfo-Telecomunicaciones"}, {"lat": 40.4588909, "lon": -3.7453949, "nombre": "Parque Deportivo Puerta de Hierro"}, {"lat": 40.4591848, "lon": -3.7449848, "nombre": "Parque Deportivo Puerta de Hierro"}, {"lat": 40.463593, "lon": -3.615683, "nombre": "Feria de Madrid"}, {"lat": 40.4638829, "lon": -3.6134254, "nombre": "Partenón-Hamburgo"}, {"lat": 40.4641365, "lon": -3.6131859, "nombre": "Partenón-Hamburgo"}, {"lat": 40.483284, "lon": -3.6999816, "nombre": "Pedro Rico-Arzobispo Morcillo"}, {"lat": 40.4839162, "lon": -3.6982217, "nombre": "Pedro Rico-Arzobispo Morcillo"}, {"lat": 40.4839577, "lon": -3.6985076, "nombre": "Pedro Rico-Arzobispo Morcillo"}, {"lat": 40.4825235, "lon": -3.7020897, "nombre": "Pedro Rico-Finisterre"}, {"lat": 40.4812716, "lon": -3.6892811, "nombre": "Pedro Rico-Hospital La Paz"}, {"lat": 40.4815313, "lon": -3.6889481, "nombre": "Pedro Rico-Hospital La Paz"}, {"lat": 40.4848839, "lon": -3.6941977, "nombre": "Pedro Rico-Julio Palacios"}, {"lat": 40.4849836, "lon": -3.6945684, "nombre": "Pedro Rico-Julio Palacios"}, {"lat": 40.4640413, "lon": -3.6300758, "nombre": "Pedroñeras-El Provencio"}, {"lat": 40.4644558, "lon": -3.6300601, "nombre": "Pedroñeras-El Provencio"}, {"lat": 40.4629125, "lon": -3.629735, "nombre": "Canillas"}, {"lat": 40.4629855, "lon": -3.6295761, "nombre": "Pedroñeras-Silvano"}, {"lat": 40.4508157, "lon": -3.62599, "nombre": "Glorieta del Yucatán"}, {"lat": 40.485908, "lon": -3.7252048, "nombre": "Peña del Águila"}, {"lat": 40.4865826, "lon": -3.7253805, "nombre": "Peña del Águila"}, {"lat": 40.4651671, "lon": -3.6950513, "nombre": "Pinos Alta-Bravo Murillo"}, {"lat": 40.467543, "lon": -3.6996086, "nombre": "Plátano"}, {"lat": 40.4918341, "lon": -3.6536563, "nombre": "Ingeniero Herrera-Príncipe Carlos"}, {"lat": 40.4922248, "lon": -3.6535276, "nombre": "Ingeniero Herrera-Príncipe Carlos"}, {"lat": 40.4894645, "lon": -3.6513793, "nombre": "Álvarez de Villaamil"}, {"lat": 40.493718, "lon": -3.6559734, "nombre": "Metro Blasco Ibáñez"}, {"lat": 40.4933869, "lon": -3.6559597, "nombre": "Metro Blasco Ibáñez"}, {"lat": 40.4468657, "lon": -3.6779098, "nombre": "Auditorio Nacional"}, {"lat": 40.4469352, "lon": -3.6783586, "nombre": "Auditorio Nacional"}, {"lat": 40.440429, "lon": -3.6786352, "nombre": "Príncipe de Vergara - Canillas"}, {"lat": 40.4406701, "lon": -3.679009, "nombre": "Príncipe de Vergara - Canillas"}, {"lat": 40.4573326, "lon": -3.6771119, "nombre": "Colombia"}, {"lat": 40.4512139, "lon": -3.6775004, "nombre": "Concha Espina"}, {"lat": 40.4521197, "lon": -3.6776205, "nombre": "Concha Espina"}, {"lat": 40.4419323, "lon": -3.6788627, "nombre": "Príncipe de Vergara-López de Hoyos"}, {"lat": 40.441885, "lon": -3.6785063, "nombre": "Príncipe de Vergara-López de Hoyos"}, {"lat": 40.4445337, "lon": -3.6782092, "nombre": "Junta Municipal Chamartín"}, {"lat": 40.4445431, "lon": -3.6785434, "nombre": "Junta Municipal Chamartín"}, {"lat": 40.4491805, "lon": -3.6780041, "nombre": "Plaza de Cataluña"}, {"lat": 40.4494384, "lon": -3.6777053, "nombre": "Plaza de Cataluña"}, {"lat": 40.4580929, "lon": -3.6767094, "nombre": "Colombia"}, {"lat": 40.4593077, "lon": -3.6768252, "nombre": "República Dominicana"}, {"lat": 40.4557829, "lon": -3.6772513, "nombre": "Ecuador"}, {"lat": 40.4558162, "lon": -3.6769525, "nombre": "Ecuador"}, {"lat": 40.453816, "lon": -3.6771776, "nombre": "Príncipe de Vergara-Serrano"}, {"lat": 40.4540937, "lon": -3.6774516, "nombre": "Príncipe de Vergara-Serrano"}, {"lat": 40.4478279, "lon": -3.7315057, "nombre": "Escuela de Caminos"}, {"lat": 40.4479491, "lon": -3.7315578, "nombre": "Escuela de Caminos"}, {"lat": 40.4493023, "lon": -3.7337711, "nombre": "Filosofía B"}, {"lat": 40.4531466, "lon": -3.7336616, "nombre": "Paraninfo-Informática"}, {"lat": 40.4953973, "lon": -3.668618, "nombre": "Puerto de Somport - Av. de Burgos"}, {"lat": 40.4956686, "lon": -3.6684297, "nombre": "Puerto de Somport - Av. de Burgos"}, {"lat": 40.4522866, "lon": -3.6746477, "nombre": "Puerto Rico"}, {"lat": 40.4571899, "lon": -3.6744638, "nombre": "Colombia"}, {"lat": 40.4593818, "lon": -3.674391, "nombre": "Guatemala"}, {"lat": 40.4550585, "lon": -3.6742181, "nombre": "Uruguay"}, {"lat": 40.4401418, "lon": -3.7262224, "nombre": "Cardenal Cisneros"}, {"lat": 40.4404108, "lon": -3.7267197, "nombre": "Cardenal Cisneros"}, {"lat": 40.440005, "lon": -3.6184032, "nombre": "Pza. Cronos"}, {"lat": 40.448502, "lon": -3.6784676, "nombre": "Plaza de Cataluña"}, {"lat": 40.4582549, "lon": -3.6903482, "nombre": "Cuzco"}, {"lat": 40.4587518, "lon": -3.6893626, "nombre": "Cuzco"}, {"lat": 40.4597979, "lon": -3.6897055, "nombre": "Cuzco"}, {"lat": 40.4516378, "lon": -3.6903169, "nombre": "Plaza Lima"}, {"lat": 40.5003351, "lon": -3.6904644, "nombre": "Plaza Tres Olivos"}, {"lat": 40.5006615, "lon": -3.6903354, "nombre": "Plaza Tres Olivos"}, {"lat": 40.4549642, "lon": -3.6969949, "nombre": "San Amaro"}, {"lat": 40.440846, "lon": -3.6626403, "nombre": "Pza. de Venecia"}, {"lat": 40.4601238, "lon": -3.6769224, "nombre": "Plaza del Perú"}, {"lat": 40.4681791, "lon": -3.6774901, "nombre": "Duque de Pastrana"}, {"lat": 40.4683704, "lon": -3.6778898, "nombre": "Duque de Pastrana"}, {"lat": 40.4461195, "lon": -3.7187322, "nombre": "Vicente Aleixandre"}, {"lat": 40.4421288, "lon": -3.7048186, "nombre": "Juan Zorrilla"}, {"lat": 40.4451638, "lon": -3.7195816, "nombre": "Pza. Marqués de Comillas"}, {"lat": 40.4454371, "lon": -3.7198112, "nombre": "Marqués de Comillas"}, {"lat": 40.4605703, "lon": -3.676831, "nombre": "Plaza del Perú"}, {"lat": 40.4583763, "lon": -3.6764619, "nombre": "República Dominicana"}, {"lat": 40.4406194, "lon": -3.6921738, "nombre": "Museo Ciencias Naturales"}, {"lat": 40.4410493, "lon": -3.69222, "nombre": "Museo Ciencias Naturales"}, {"lat": 40.4410745, "lon": -3.6913643, "nombre": "Museo Ciencias Naturales"}, {"lat": 40.4728894, "lon": -3.6494199, "nombre": "Hortaleza"}, {"lat": 40.4670878, "lon": -3.6885684, "nombre": "Plaza Castilla"}, {"lat": 40.4784242, "lon": -3.6863483, "nombre": "Castellana-Cuatro Torres"}, {"lat": 40.4493048, "lon": -3.6906899, "nombre": "Azca"}, {"lat": 40.4493323, "lon": -3.691196, "nombre": "Azca"}, {"lat": 40.4709025, "lon": -3.6884942, "nombre": "Castellana-Matilde Landa"}, {"lat": 40.4555721, "lon": -3.6901188, "nombre": "Castellana-San Germán"}, {"lat": 40.455939, "lon": -3.6899133, "nombre": "Pº Castellana - Gral. Yague"}, {"lat": 40.4565167, "lon": -3.6904816, "nombre": "Castellana-San Germán"}, {"lat": 40.4806242, "lon": -3.6851514, "nombre": "Castellana-Nudo Norte (eliminada por obras)"}, {"lat": 40.4436884, "lon": -3.6911438, "nombre": "Nuevos Ministerios-Castellana"}, {"lat": 40.4708326, "lon": -3.6875893, "nombre": "Castellana-José Vasconcelos"}, {"lat": 40.4650457, "lon": -3.6897489, "nombre": "Juzgados Plaza Castilla"}, {"lat": 40.4650334, "lon": -3.6891904, "nombre": "Juzgados Plaza Castilla"}, {"lat": 40.4731404, "lon": -3.6878753, "nombre": "Castellana-Luis Esteban"}, {"lat": 40.4772228, "lon": -3.6857318, "nombre": "Castellana-Manuel Caldeiro"}, {"lat": 40.4721173, "lon": -3.6872154, "nombre": "Castellana-Ravel"}, {"lat": 40.4760014, "lon": -3.6870091, "nombre": "Cuatro Torres"}, {"lat": 40.473212, "lon": -3.6868732, "nombre": "Castellana-Marqués Torrelaguna"}, {"lat": 40.4441193, "lon": -3.6918188, "nombre": "Nuevos Ministerios-Castellana"}, {"lat": 40.4454013, "lon": -3.6916954, "nombre": "Nuevos Ministerios-Cercanías"}, {"lat": 40.4669107, "lon": -3.6895849, "nombre": "Plaza Castilla"}, {"lat": 40.4513097, "lon": -3.6910235, "nombre": "Lima-Santiago Bernabéu"}, {"lat": 40.4512712, "lon": -3.6905284, "nombre": "Lima-Santiago Bernabéu"},